[
    {
        "agency": "WSA VERDEN",
        "km": 9.56,
        "latitude": 52.90406541008721,
        "longitude": 9.27676943537587,
        "longname": "EITZE",
        "number": "48900237",
        "shortname": "EITZE",
        "uuid": "47174d8f-1b8e-4599-8a59-b580dd55bc87",
        "water": {
            "longname": "ALLER",
            "shortname": "ALLER"
        }
    },
    {
        "agency": "WSA VERDEN",
        "km": 34.22,
        "latitude": 52.78909755467678,
        "longitude": 9.382840810129357,
        "longname": "RETHEM",
        "number": "48900204",
        "shortname": "RETHEM",
        "uuid": "5aaed954-de4e-4528-8f65-f3f530bc8325",
        "water": {
            "longname": "ALLER",
            "shortname": "ALLER"
        }
    },
    {
        "agency": "WSA VERDEN",
        "km": 57.92,
        "latitude": 52.76243123735362,
        "longitude": 9.570880730005372,
        "longname": "AHLDEN",
        "number": "48900102",
        "shortname": "AHLDEN",
        "uuid": "522286e2-b2b3-4d0d-9a11-01b3ea418c76",
        "water": {
            "longname": "ALLER",
            "shortname": "ALLER"
        }
    },
    {
        "agency": "WSA VERDEN",
        "km": 75.91,
        "latitude": 52.68275723511432,
        "longitude": 9.703455757318089,
        "longname": "MARKLENDORF",
        "number": "48700103",
        "shortname": "MARKLENDORF",
        "uuid": "8b4f9f7c-3376-4dd8-95c1-de55b1be4dfd",
        "water": {
            "longname": "ALLER",
            "shortname": "ALLER"
        }
    },
    {
        "agency": "WSA VERDEN",
        "km": 111.55,
        "latitude": 52.62270549447987,
        "longitude": 10.062164093638698,
        "longname": "CELLE",
        "number": "48300105",
        "shortname": "CELLE",
        "uuid": "b475386c-30cc-453a-b3b7-1d17ace13595",
        "water": {
            "longname": "ALLER",
            "shortname": "ALLER"
        }
    },
    {
        "agency": "WSA BERLIN",
        "km": 7.41,
        "latitude": 52.54369958358309,
        "longitude": 13.32314190907983,
        "longname": "BERLIN-PLOETZENSEE OP",
        "number": "586640",
        "shortname": "BERLIN-PLOETZENSEE OP",
        "uuid": "ee52ce62-212c-4735-b438-26fbdc37e3e2",
        "water": {
            "longname": "BERLIN-SPANDAUER-SCHIFFFAHRTSKANAL",
            "shortname": "BSK"
        }
    },
    {
        "agency": "WSA BERLIN",
        "km": 7.5,
        "latitude": 52.54303550696079,
        "longitude": 13.323858970566246,
        "longname": "BERLIN-PLOETZENSEE UP",
        "number": "586650",
        "shortname": "BERLIN-PLOETZENSEE UP",
        "uuid": "45721a68-566c-4e2a-a6c7-a7595982a779",
        "water": {
            "longname": "BERLIN-SPANDAUER-SCHIFFFAHRTSKANAL",
            "shortname": "BSK"
        }
    },
    {
        "agency": "REGIERUNGSPR\u00c4SIDIUM FREIBURG",
        "km": 0.0,
        "latitude": 47.660750098681156,
        "longitude": 9.181039087954112,
        "longname": "KONSTANZ",
        "number": "906",
        "shortname": "KONSTANZ",
        "uuid": "aa9179c1-17ef-4c61-a48a-74193fa7bfdf",
        "water": {
            "longname": "BODENSEE",
            "shortname": "BODENSEE"
        }
    },
    {
        "agency": "WSA HAMBURG",
        "km": 2.95,
        "latitude": 53.66896299867038,
        "longitude": 9.494306874416917,
        "longname": "ABBENFLETH SPERRWERK",
        "number": "126013",
        "shortname": "ABBENFLETH SPERRWERK",
        "uuid": "28ec91e8-90c0-44d1-8fd2-b0b64c00c43b",
        "water": {
            "longname": "B\u00dcTZFLETHER S\u00dcDERELBE",
            "shortname": "B\u00fctzflether S\u00fcderelbe"
        }
    },
    {
        "agency": "WSA BERLIN",
        "km": 0.28,
        "latitude": 52.3743981024444,
        "longitude": 13.653581054978613,
        "longname": "BERLIN-SCHMOECKWITZ",
        "number": "586810",
        "shortname": "BERLIN-SCHMOECKWITZ",
        "uuid": "6b595707-8c47-4bc7-a803-dbc327775c26",
        "water": {
            "longname": "DAHME-WASSERSTRASSE",
            "shortname": "DAW"
        }
    },
    {
        "agency": "WSA BERLIN",
        "km": 9.4,
        "latitude": 52.2974746382713,
        "longitude": 13.649641346289084,
        "longname": "NEUE M\u00dcHLE SCHLEUSE UP",
        "number": "586280",
        "shortname": "NEUE M\u00dcHLE SCHLEUSE UP",
        "uuid": "c9a6c3bf-02d4-4945-83e8-b7c6cf9701fa",
        "water": {
            "longname": "DAHME-WASSERSTRASSE",
            "shortname": "DAW"
        }
    },
    {
        "agency": "WSA BERLIN",
        "km": 9.56,
        "latitude": 52.296815768340494,
        "longitude": 13.651757595446602,
        "longname": "NEUE M\u00dcHLE SCHLEUSE OP",
        "number": "586270",
        "shortname": "NEUE M\u00dcHLE SCHLEUSE OP",
        "uuid": "0e0dbcc9-0a7d-494a-bc92-52e56a7fffe2",
        "water": {
            "longname": "DAHME-WASSERSTRASSE",
            "shortname": "DAW"
        }
    },
    {
        "agency": "WSA RHEINE",
        "km": 2.144,
        "latitude": 51.639741266643966,
        "longitude": 7.380201417969081,
        "longname": "WALTROP",
        "number": "27800090",
        "shortname": "WALTROP",
        "uuid": "facc5c16-f700-4248-9893-a395bffaf2e4",
        "water": {
            "longname": "DATTELN-HAMM-KANAL",
            "shortname": "DHK"
        }
    },
    {
        "agency": "WSA RHEINE",
        "km": 36.59,
        "latitude": 51.684812401946154,
        "longitude": 7.8157886355655055,
        "longname": "HAMM UW",
        "number": "27800080",
        "shortname": "HAMM UW",
        "uuid": "4ef9dd9c-b32b-43fc-bc5e-3849d4ab7ecc",
        "water": {
            "longname": "DATTELN-HAMM-KANAL",
            "shortname": "DHK"
        }
    },
    {
        "agency": "WSA RHEINE",
        "km": 38.72,
        "latitude": 51.69378170588779,
        "longitude": 7.842759417458165,
        "longname": "HAMM OW",
        "number": "27800060",
        "shortname": "HAMM OW",
        "uuid": "4dbce62d-a015-4011-afcd-423bb8d4b7a1",
        "water": {
            "longname": "DATTELN-HAMM-KANAL",
            "shortname": "DHK"
        }
    },
    {
        "agency": "WSA RHEINE",
        "km": 40.611,
        "latitude": 51.69515274731866,
        "longitude": 7.870045686711512,
        "longname": "WERRIES OW",
        "number": "27800050",
        "shortname": "WERRIES OW",
        "uuid": "d31767ef-2cf8-4046-9881-d5651d81ade8",
        "water": {
            "longname": "DATTELN-HAMM-KANAL",
            "shortname": "DHK"
        }
    },
    {
        "agency": "WSA HANNOVERSCH M\u00dcNDEN",
        "km": 90.0,
        "latitude": 51.3814751905412,
        "longitude": 8.730780201102268,
        "longname": "HELMINGHAUSEN",
        "number": "44100206",
        "shortname": "HELMINGHAUSEN",
        "uuid": "33092c28-201a-4210-89c9-ce68cad61ed1",
        "water": {
            "longname": "DIEMEL",
            "shortname": "DIEMEL"
        }
    },
    {
        "agency": "WSA HANNOVERSCH M\u00dcNDEN",
        "km": 90.6,
        "latitude": 51.37769518366961,
        "longitude": 8.728647958229969,
        "longname": "DIEMELTALSPERRE",
        "number": "44100104",
        "shortname": "DIEMELTALSPERRE",
        "uuid": "5cdc6555-87d7-4fcd-834d-cbbe24c9d08b",
        "water": {
            "longname": "DIEMEL",
            "shortname": "DIEMEL"
        }
    },
    {
        "agency": "WSA HANNOVERSCH M\u00dcNDEN",
        "km": 97.4,
        "latitude": 51.34631485945018,
        "longitude": 8.723953002325766,
        "longname": "WILHELMSBR\u00dcCKE",
        "number": "44100024",
        "shortname": "WILHELMSBR\u00dcCKE",
        "uuid": "7deedc21-2878-40cc-ab47-f6da0d9002f1",
        "water": {
            "longname": "DIEMEL",
            "shortname": "DIEMEL"
        }
    },
    {
        "agency": "WSA REGENSBURG",
        "km": 2214.51,
        "latitude": 48.56736670179466,
        "longitude": 13.586857356936074,
        "longname": "ERLAU",
        "number": "10096001",
        "shortname": "ERLAU",
        "uuid": "99619dc5-9c88-45e9-a97d-653c41cda8a1",
        "water": {
            "longname": "DONAU",
            "shortname": "DONAU"
        }
    },
    {
        "agency": "VIA DONAU - \u00d6STERREICHISCHE WASSERSTRASSEN-GESELLSCHAFT MBH",
        "km": 2223.05,
        "latitude": 48.58204677038562,
        "longitude": 13.503184735677362,
        "longname": "ACHLEITEN",
        "number": "10094006",
        "shortname": "ACHLEITEN",
        "uuid": "c389c9e2-a5d8-4104-a4cf-510ade44f143",
        "water": {
            "longname": "DONAU",
            "shortname": "DONAU"
        }
    },
    {
        "agency": "WSA REGENSBURG",
        "km": 2225.25,
        "latitude": 48.575208623171456,
        "longitude": 13.478019136458602,
        "longname": "PASSAU ILZSTADT",
        "number": "10092000",
        "shortname": "PASSAU ILZSTADT",
        "uuid": "33ceb441-23bc-4ca6-9fcd-ac35d41ef117",
        "water": {
            "longname": "DONAU",
            "shortname": "DONAU"
        }
    },
    {
        "agency": "WSA REGENSBURG",
        "km": 2225.75,
        "latitude": 48.57583526499114,
        "longitude": 13.472832549818259,
        "longname": "PASSAU LUITPOLDBR\u00dcCKE DFH",
        "number": "10091013",
        "shortname": "PASSAU LUITPOLDBR\u00dcCKE DFH",
        "uuid": "4520c1a8-174c-4b95-9ca3-fe1e3f9d874a",
        "water": {
            "longname": "DONAU",
            "shortname": "DONAU"
        }
    },
    {
        "agency": "WSA REGENSBURG",
        "km": 2226.7,
        "latitude": 48.57612011844346,
        "longitude": 13.459076672254577,
        "longname": "PASSAU DONAU",
        "number": "10091008",
        "shortname": "PASSAU DONAU",
        "uuid": "9f12c405-35ac-4d90-9b7b-023be355867e",
        "water": {
            "longname": "DONAU",
            "shortname": "DONAU"
        }
    },
    {
        "agency": "WSA REGENSBURG",
        "km": 2230.31,
        "latitude": 48.57566991908354,
        "longitude": 13.475461520306283,
        "longname": "PASSAU STEINBACHBR\u00dcCKE DFH",
        "number": "10090710",
        "shortname": "PASSAU STEINBACHBR\u00dcCKE DFH",
        "uuid": "3199ce09-cd9b-4be2-82bc-f03bb81438e5",
        "water": {
            "longname": "DONAU",
            "shortname": "DONAU"
        }
    },
    {
        "agency": "WSA REGENSBURG",
        "km": 2230.32,
        "latitude": 48.57855473136858,
        "longitude": 13.41078588341841,
        "longname": "KACHLET UP",
        "number": "10090708",
        "shortname": "KACHLET UP",
        "uuid": "0fd56e0a-e32e-4b56-9cda-e0ce93d715c4",
        "water": {
            "longname": "DONAU",
            "shortname": "DONAU"
        }
    },
    {
        "agency": "WSA REGENSBURG",
        "km": 2230.724,
        "longname": "KACHLET WEHR UP",
        "number": "10090408",
        "shortname": "KACHLET WEHR UP",
        "uuid": "560cf185-0052-4e40-832b-7792b52dd343",
        "water": {
            "longname": "DONAU",
            "shortname": "DONAU"
        }
    },
    {
        "agency": "WSA REGENSBURG",
        "km": 2249.47,
        "latitude": 48.637199594501034,
        "longitude": 13.182358222269338,
        "longname": "VILSHOFEN",
        "number": "10089006",
        "shortname": "VILSHOFEN",
        "uuid": "e6d68ab7-5c27-4f25-896f-11dbf04056cd",
        "water": {
            "longname": "DONAU",
            "shortname": "DONAU"
        }
    },
    {
        "agency": "WSA REGENSBURG",
        "km": 2256.86,
        "latitude": 48.67663176781114,
        "longitude": 13.115160271464772,
        "longname": "HOFKIRCHEN",
        "number": "10088003",
        "shortname": "HOFKIRCHEN",
        "uuid": "616dd98e-816d-4e17-b8cd-57b163dbc8a2",
        "water": {
            "longname": "DONAU",
            "shortname": "DONAU"
        }
    },
    {
        "agency": "WSA REGENSBURG",
        "km": 2284.44,
        "latitude": 48.824932569913784,
        "longitude": 12.962349998942592,
        "longname": "DEGGENDORF",
        "number": "10081004",
        "shortname": "DEGGENDORF",
        "uuid": "53d40547-8a09-4b25-988c-2e6d8d8d98ee",
        "water": {
            "longname": "DONAU",
            "shortname": "DONAU"
        }
    },
    {
        "agency": "WSA REGENSBURG",
        "km": 2305.53,
        "latitude": 48.87984985609091,
        "longitude": 12.747330153374985,
        "longname": "PFELLING",
        "number": "10078000",
        "shortname": "PFELLING",
        "uuid": "7fe63a95-8ff6-4cff-9a29-a124136516b5",
        "water": {
            "longname": "DONAU",
            "shortname": "DONAU"
        }
    },
    {
        "agency": "WSA REGENSBURG",
        "km": 2350.69,
        "latitude": 48.98045247487973,
        "longitude": 12.383769252011401,
        "longname": "PFATTER",
        "number": "10068006",
        "shortname": "PFATTER",
        "uuid": "f768173a-7a22-40f7-90a3-4676da7e5010",
        "water": {
            "longname": "DONAU",
            "shortname": "DONAU"
        }
    },
    {
        "agency": "WSA REGENSBURG",
        "km": 2376.49,
        "latitude": 49.02359432882008,
        "longitude": 12.13868286367361,
        "longname": "SCHWABELWEIS",
        "number": "10062000",
        "shortname": "SCHWABELWEIS",
        "uuid": "7644f1d7-3198-4313-9340-abefd459a4f3",
        "water": {
            "longname": "DONAU",
            "shortname": "DONAU"
        }
    },
    {
        "agency": "WSA REGENSBURG",
        "km": 2379.27,
        "latitude": 49.02137883980302,
        "longitude": 12.101838366417141,
        "longname": "EISERNE BR\u00dcCKE",
        "number": "10061007",
        "shortname": "EISERNE BR\u00dcCKE",
        "uuid": "eebd633a-3af0-4b79-83d5-b6490765e06c",
        "water": {
            "longname": "DONAU",
            "shortname": "DONAU"
        }
    },
    {
        "agency": "WSA REGENSBURG",
        "km": 2397.38,
        "latitude": 48.94685787976606,
        "longitude": 12.014757615398487,
        "longname": "OBERNDORF",
        "number": "10056302",
        "shortname": "OBERNDORF",
        "uuid": "e476bcad-b898-4f68-9c26-4f1a1159dff6",
        "water": {
            "longname": "DONAU",
            "shortname": "DONAU"
        }
    },
    {
        "agency": "WSA REGENSBURG",
        "km": 2409.7,
        "latitude": 48.91185866862933,
        "longitude": 11.932078963881246,
        "longname": "KELHEIMWINZER",
        "number": "10054500",
        "shortname": "KELHEIMWINZER",
        "uuid": "c9409937-b794-4b69-b36b-38467daab09a",
        "water": {
            "longname": "DONAU",
            "shortname": "DONAU"
        }
    },
    {
        "agency": "WASSERWIRTSCHAFTSAMT INGOLSTADT",
        "km": 2458.3,
        "latitude": 48.75741413624857,
        "longitude": 11.426054133096121,
        "longname": "INGOLSTADT LUITPOLDSTRASSE",
        "number": "10046105",
        "shortname": "INGOLSTADT LUITPOLDSTRASSE",
        "uuid": "824a046b-9ca3-4db8-993d-e755122854e0",
        "water": {
            "longname": "DONAU",
            "shortname": "DONAU"
        }
    },
    {
        "agency": "WSA DUISBURG-MEIDERICH",
        "km": 14.3,
        "latitude": 51.61604683260784,
        "longitude": 7.339002440622217,
        "longname": "HENRICHENBURG OW",
        "number": "27700111",
        "shortname": "HENRICHENBURG OW",
        "uuid": "70bee932-1c14-42f8-b4df-9a85589ca80e",
        "water": {
            "longname": "DORTMUND-EMS-KANAL",
            "shortname": "DEK"
        }
    },
    {
        "agency": "WSA DUISBURG-MEIDERICH",
        "km": 15.9,
        "latitude": 51.62111782997715,
        "longitude": 7.32942536471659,
        "longname": "HENRICHENBURG UW",
        "number": "27700133",
        "shortname": "HENRICHENBURG UW",
        "uuid": "e6b68bc2-6814-4bbf-b37e-44a0b7807c2d",
        "water": {
            "longname": "DORTMUND-EMS-KANAL",
            "shortname": "DEK"
        }
    },
    {
        "agency": "WSA RHEINE",
        "km": 39.32,
        "latitude": 51.798112678551554,
        "longitude": 7.401947345930443,
        "longname": "L\u00dcDINGHAUSEN",
        "number": "27800020",
        "shortname": "L\u00dcDINGHAUSEN",
        "uuid": "f5bc4a51-004f-4e5e-99b9-e6ae888d57de",
        "water": {
            "longname": "DORTMUND-EMS-KANAL",
            "shortname": "DEK"
        }
    },
    {
        "agency": "WSA RHEINE",
        "km": 70.315,
        "latitude": 51.96894192140413,
        "longitude": 7.664374042081728,
        "longname": "M\u00dcNSTER OW",
        "number": "27800040",
        "shortname": "M\u00dcNSTER OW",
        "uuid": "ccd3e8f1-39e9-4e09-aa41-625afda84460",
        "water": {
            "longname": "DORTMUND-EMS-KANAL",
            "shortname": "DEK"
        }
    },
    {
        "agency": "WSA RHEINE",
        "km": 72.49,
        "latitude": 51.9871250324716,
        "longitude": 7.660129217739214,
        "longname": "M\u00dcNSTER UW",
        "number": "27800030",
        "shortname": "M\u00dcNSTER UW",
        "uuid": "ed260406-bdd6-42ef-bf2a-1246eea392f9",
        "water": {
            "longname": "DORTMUND-EMS-KANAL",
            "shortname": "DEK"
        }
    },
    {
        "agency": "WSA RHEINE",
        "km": 108.26,
        "latitude": 52.27585261525862,
        "longitude": 7.60495826627035,
        "longname": "BERGESH\u00d6VEDE",
        "number": "34000010",
        "shortname": "BERGESH\u00d6VEDE",
        "uuid": "ade3a084-8680-47b5-9d2e-288cb6c5f9d5",
        "water": {
            "longname": "DORTMUND-EMS-KANAL",
            "shortname": "DEK"
        }
    },
    {
        "agency": "WSA MEPPEN",
        "km": 166.42,
        "latitude": 52.69419096026676,
        "longitude": 7.292912281272764,
        "longname": "HASEHUBBR\u00dcCKE",
        "number": "3690010",
        "shortname": "HASEHUBBR\u00dcCKE",
        "uuid": "04572010-1db2-4338-8562-b3dca5e715c5",
        "water": {
            "longname": "DORTMUND-EMS-KANAL",
            "shortname": "DEK"
        }
    },
    {
        "agency": "WSA MEPPEN",
        "km": 213.07,
        "latitude": 53.04191531444477,
        "longitude": 7.317135433826929,
        "longname": "HERBRUM HAFENDAMM",
        "number": "3770030",
        "shortname": "HERBRUM HAFENDAMM",
        "uuid": "8177a148-5674-4b8f-8ded-050907f640f3",
        "water": {
            "longname": "DORTMUND-EMS-KANAL",
            "shortname": "DEK"
        }
    },
    {
        "agency": "WSA MEPPEN",
        "km": 217.86,
        "latitude": 53.07241788394306,
        "longitude": 7.286979017850521,
        "longname": "RHEDE",
        "number": "3770040",
        "shortname": "RHEDE",
        "uuid": "16508b11-4349-48f7-be51-1227b7888585",
        "water": {
            "longname": "DORTMUND-EMS-KANAL",
            "shortname": "DEK"
        }
    },
    {
        "agency": "WSA BRUNSB\u00dcTTEL",
        "km": 11.94,
        "latitude": 53.9572369939967,
        "longitude": 9.262888663124173,
        "longname": "GW-PWDRFP 02",
        "number": "2130154610",
        "shortname": "GW-PWDRFP 02",
        "uuid": "e1217d07-91f8-4019-b3a2-0c0d69316ab8",
        "water": {
            "longname": "DYHRSSENMOOR",
            "shortname": "DYHRSSENMOOR"
        }
    },
    {
        "agency": "WSA BRUNSB\u00dcTTEL",
        "km": 12.03,
        "latitude": 53.95940617253433,
        "longitude": 9.260387081801174,
        "longname": "GW-PWDRFP 01",
        "number": "1130154610",
        "shortname": "GW-PWDRFP 01",
        "uuid": "4a4daad2-0e96-4070-914e-a1c4f6b7a3e5",
        "water": {
            "longname": "DYHRSSENMOOR",
            "shortname": "DYHRSSENMOOR"
        }
    },
    {
        "agency": "WSA BRUNSB\u00dcTTEL",
        "km": 12.45,
        "latitude": 53.96211864218393,
        "longitude": 9.265026101191742,
        "longname": "GW-PWDRFP 08",
        "number": "8130154610",
        "shortname": "GW-PWDRFP 08",
        "uuid": "bc9f369e-5fd4-466c-8d97-ddb1ecd2aed2",
        "water": {
            "longname": "DYHRSSENMOOR",
            "shortname": "DYHRSSENMOOR"
        }
    },
    {
        "agency": "WSA BRUNSB\u00dcTTEL",
        "km": 12.49,
        "latitude": 53.96081287595425,
        "longitude": 9.268645473763716,
        "longname": "GW-PWDRFP 03",
        "number": "3130154610",
        "shortname": "GW-PWDRFP 03",
        "uuid": "6cb287c2-2fb2-4845-b11f-e78bd5db2ce3",
        "water": {
            "longname": "DYHRSSENMOOR",
            "shortname": "DYHRSSENMOOR"
        }
    },
    {
        "agency": "WSA BRUNSB\u00dcTTEL",
        "km": 12.73,
        "latitude": 53.96419551601779,
        "longitude": 9.267517071045393,
        "longname": "GW-PWDRFP 09",
        "number": "9130154610",
        "shortname": "GW-PWDRFP 09",
        "uuid": "18216ff8-18aa-4a71-bd32-e7479ccc439d",
        "water": {
            "longname": "DYHRSSENMOOR",
            "shortname": "DYHRSSENMOOR"
        }
    },
    {
        "agency": "WSA BRUNSB\u00dcTTEL",
        "km": 13.0,
        "latitude": 53.96278185572357,
        "longitude": 9.276800135485715,
        "longname": "GW-PWDRFP 04",
        "number": "4130154610",
        "shortname": "GW-PWDRFP 04",
        "uuid": "6e19aeca-d37a-4b00-9354-c6dd90f12de2",
        "water": {
            "longname": "DYHRSSENMOOR",
            "shortname": "DYHRSSENMOOR"
        }
    },
    {
        "agency": "WSA BRUNSB\u00dcTTEL",
        "km": 13.31,
        "latitude": 53.968640829454415,
        "longitude": 9.27218333697518,
        "longname": "GW-PWDRFP 06",
        "number": "6130154610",
        "shortname": "GW-PWDRFP 06",
        "uuid": "69fc0432-e9dc-400c-8c21-0c26e85df884",
        "water": {
            "longname": "DYHRSSENMOOR",
            "shortname": "DYHRSSENMOOR"
        }
    },
    {
        "agency": "WSA BRUNSB\u00dcTTEL",
        "km": 13.41,
        "latitude": 53.96794404784011,
        "longitude": 9.275973783528286,
        "longname": "GW-PWDRFP 05",
        "number": "5130154610",
        "shortname": "GW-PWDRFP 05",
        "uuid": "a1341b43-9c62-4e71-87cc-61a0d4d1b105",
        "water": {
            "longname": "DYHRSSENMOOR",
            "shortname": "DYHRSSENMOOR"
        }
    },
    {
        "agency": "WSA BRUNSB\u00dcTTEL",
        "km": 13.86,
        "latitude": 53.97311783991779,
        "longitude": 9.275959434151838,
        "longname": "GW-PWDRFP 07",
        "number": "7130154610",
        "shortname": "GW-PWDRFP 07",
        "uuid": "f6dc9514-bdaf-4817-b3bf-34cd4b5c3e18",
        "water": {
            "longname": "DYHRSSENMOOR",
            "shortname": "DYHRSSENMOOR"
        }
    },
    {
        "agency": "WSA HANNOVERSCH M\u00dcNDEN",
        "km": 44.02,
        "latitude": 51.164140826669616,
        "longitude": 9.084726303618204,
        "longname": "AFFOLDERN",
        "number": "42800502",
        "shortname": "AFFOLDERN",
        "uuid": "ab9d5a42-2b8d-491b-9fd1-8120df23c8e6",
        "water": {
            "longname": "EDER",
            "shortname": "EDER"
        }
    },
    {
        "agency": "WSA HANNOVERSCH M\u00dcNDEN",
        "km": 49.2,
        "latitude": 51.18404001559913,
        "longitude": 9.058927535521473,
        "longname": "EDERTALSPERRE",
        "number": "42800310",
        "shortname": "EDERTALSPERRE",
        "uuid": "c6e9f744-4dbf-4e8e-a219-cab051ec610c",
        "water": {
            "longname": "EDER",
            "shortname": "EDER"
        }
    },
    {
        "agency": "WSA HANNOVERSCH M\u00dcNDEN",
        "km": 74.5,
        "latitude": 51.156952649485866,
        "longitude": 8.899212377819229,
        "longname": "SCHMITTLOTHEIM",
        "number": "42800309",
        "shortname": "SCHMITTLOTHEIM",
        "uuid": "d2155fa6-b03d-468c-884e-ccf6fefc40bd",
        "water": {
            "longname": "EDER",
            "shortname": "EDER"
        }
    },
    {
        "agency": "WSA T\u00d6NNING",
        "km": 26.09,
        "latitude": 54.222472083209574,
        "longitude": 9.436143069928907,
        "longname": "LEXF\u00c4HRE OBERWASSER",
        "number": "9520020",
        "shortname": "LEXF\u00c4HRE OBERWASSER",
        "uuid": "86c5688f-2fac-4d58-a245-ad8ce14cafbf",
        "water": {
            "longname": "EIDER",
            "shortname": "EIDER"
        }
    },
    {
        "agency": "WSA T\u00d6NNING",
        "km": 26.09,
        "latitude": 54.22321945463886,
        "longitude": 9.43567567190707,
        "longname": "LEXF\u00c4HRE UNTERWASSER",
        "number": "9520030",
        "shortname": "LEXF\u00c4HRE UNTERWASSER",
        "uuid": "7f01fbd8-653c-40ba-8ed0-57386a9b4557",
        "water": {
            "longname": "EIDER",
            "shortname": "EIDER"
        }
    },
    {
        "agency": "WSA T\u00d6NNING",
        "km": 78.19,
        "latitude": 54.33873307277425,
        "longitude": 9.139643467419782,
        "longname": "NORDFELD OBERWASSER",
        "number": "9520040",
        "shortname": "NORDFELD OBERWASSER",
        "uuid": "61394669-3f1b-44e5-ae37-50fd2512f4fa",
        "water": {
            "longname": "EIDER",
            "shortname": "EIDER"
        }
    },
    {
        "agency": "WSA T\u00d6NNING",
        "km": 78.312,
        "latitude": 54.339462378306536,
        "longitude": 9.138246832675826,
        "longname": "NORDFELD UNTERWASSER",
        "number": "9520050",
        "shortname": "NORDFELD UNTERWASSER",
        "uuid": "cb93548e-c1ce-43f6-b3a1-6903f8835b33",
        "water": {
            "longname": "EIDER",
            "shortname": "EIDER"
        }
    },
    {
        "agency": "WSA T\u00d6NNING",
        "km": 83.14,
        "latitude": 54.36846849174286,
        "longitude": 9.094603006864787,
        "longname": "FRIEDRICHSTADT STRASSENBR\u00dcCKE",
        "number": "9520060",
        "shortname": "FRIEDRICHSTADT STRASSENBR\u00dcCKE",
        "uuid": "721313e7-935a-4bb8-8c6d-0e014211b2ec",
        "water": {
            "longname": "EIDER",
            "shortname": "EIDER"
        }
    },
    {
        "agency": "WSA T\u00d6NNING",
        "km": 99.8,
        "latitude": 54.31468296416213,
        "longitude": 8.950149034965454,
        "longname": "T\u00d6NNING",
        "number": "9520070",
        "shortname": "T\u00d6NNING",
        "uuid": "00e386ac-e35c-4a6e-80dd-f8cd8a9e7a62",
        "water": {
            "longname": "EIDER",
            "shortname": "EIDER"
        }
    },
    {
        "agency": "WSA T\u00d6NNING",
        "km": 109.6,
        "latitude": 54.26585320877476,
        "longitude": 8.849450815238436,
        "longname": "EIDER-SPERRWERK BP",
        "number": "9520081",
        "shortname": "EIDER-SPERRWERK BP",
        "uuid": "8ac85e6c-6167-496c-b16f-fa94f81cd94a",
        "water": {
            "longname": "EIDER",
            "shortname": "EIDER"
        }
    },
    {
        "agency": "WSA HAMBURG",
        "longname": "HAHN\u00d6FER NEBENELBE 1",
        "number": "71161198",
        "shortname": "HAHN\u00d6FER NEBENELBE 1",
        "uuid": "6da1a0e2-9af5-4a4c-b52d-c0faead67d70",
        "water": {
            "longname": "ELBE",
            "shortname": "ELBE"
        }
    },
    {
        "agency": "BUNDESANSTALT F\u00dcR GEW\u00c4SSERKUNDE",
        "km": 1.0,
        "longname": "WITTENBERGG\u00dcTE",
        "number": "501421",
        "shortname": "WITTENBERGG\u00dcTE",
        "uuid": "d634b809-286e-4c68-aa5b-49932bf34a97",
        "water": {
            "longname": "ELBE",
            "shortname": "ELBE"
        }
    },
    {
        "agency": "WSA DRESDEN",
        "km": 2.05,
        "latitude": 50.87576228360562,
        "longitude": 14.235228651495222,
        "longname": "SCH\u00d6NA",
        "number": "501010",
        "shortname": "SCH\u00d6NA",
        "uuid": "7cb7461b-3530-4c01-8978-7f676b8f71ed",
        "water": {
            "longname": "ELBE",
            "shortname": "ELBE"
        }
    },
    {
        "agency": "WSA DRESDEN",
        "km": 34.67,
        "latitude": 50.96458457915114,
        "longitude": 13.929755188361455,
        "longname": "PIRNA",
        "number": "501040",
        "shortname": "PIRNA",
        "uuid": "85d686f1-55b2-4d36-8dba-3207b50901a7",
        "water": {
            "longname": "ELBE",
            "shortname": "ELBE"
        }
    },
    {
        "agency": "WSA DRESDEN",
        "km": 55.63,
        "latitude": 51.05445972641962,
        "longitude": 13.738831783620387,
        "longname": "DRESDEN",
        "number": "501060",
        "shortname": "DRESDEN",
        "uuid": "70272185-b2b3-4178-96b8-43bea330dcae",
        "water": {
            "longname": "ELBE",
            "shortname": "ELBE"
        }
    },
    {
        "agency": "WSA DRESDEN",
        "km": 82.2,
        "latitude": 51.16440553646387,
        "longitude": 13.475467710324816,
        "longname": "MEISSEN",
        "number": "501080",
        "shortname": "MEISSEN",
        "uuid": "24440872-5bd2-4fb3-8554-907b49816c49",
        "water": {
            "longname": "ELBE",
            "shortname": "ELBE"
        }
    },
    {
        "agency": "WSA DRESDEN",
        "km": 108.4,
        "latitude": 51.31148155805161,
        "longitude": 13.293340521685113,
        "longname": "RIESA",
        "number": "501110",
        "shortname": "RIESA",
        "uuid": "b04b739d-7ffa-41ee-9eb9-95cb1b4ef508",
        "water": {
            "longname": "ELBE",
            "shortname": "ELBE"
        }
    },
    {
        "agency": "WSA DRESDEN",
        "km": 128.02,
        "latitude": 51.43734955683441,
        "longitude": 13.191761890400072,
        "longname": "M\u00dcHLBERG",
        "number": "501160",
        "shortname": "M\u00dcHLBERG",
        "uuid": "16b9b4e7-be14-41fd-941e-6755c97276cc",
        "water": {
            "longname": "ELBE",
            "shortname": "ELBE"
        }
    },
    {
        "agency": "WSA DRESDEN",
        "km": 154.15,
        "latitude": 51.553684503588414,
        "longitude": 13.01013060185494,
        "longname": "TORGAU",
        "number": "501261",
        "shortname": "TORGAU",
        "uuid": "83bbaedb-5d81-4bc6-9f66-3bd700c99c1f",
        "water": {
            "longname": "ELBE",
            "shortname": "ELBE"
        }
    },
    {
        "agency": "WSA DRESDEN",
        "km": 184.45,
        "latitude": 51.71699260639268,
        "longitude": 12.82329701429728,
        "longname": "PRETZSCH-MAUKEN",
        "number": "501330",
        "shortname": "PRETZSCH-MAUKEN",
        "uuid": "f3dc8f07-c2bb-4b92-b0b0-4e01a395a2c6",
        "water": {
            "longname": "ELBE",
            "shortname": "ELBE"
        }
    },
    {
        "agency": "WSA DRESDEN",
        "km": 200.15,
        "latitude": 51.82685063279587,
        "longitude": 12.827256703317092,
        "longname": "ELSTER",
        "number": "501390",
        "shortname": "ELSTER",
        "uuid": "c093b557-4954-4f05-8f5c-6c6d7916c62d",
        "water": {
            "longname": "ELBE",
            "shortname": "ELBE"
        }
    },
    {
        "agency": "WSA DRESDEN",
        "km": 214.14,
        "latitude": 51.85652910647732,
        "longitude": 12.646310954043884,
        "longname": "WITTENBERG",
        "number": "501420",
        "shortname": "WITTENBERG",
        "uuid": "070b1eb4-3872-4e07-b2e5-e25fd9251b93",
        "water": {
            "longname": "ELBE",
            "shortname": "ELBE"
        }
    },
    {
        "agency": "WSA DRESDEN",
        "km": 236.31,
        "latitude": 51.876940469957034,
        "longitude": 12.454011602418165,
        "longname": "COSWIG",
        "number": "501470",
        "shortname": "COSWIG",
        "uuid": "1ce53a59-33b9-40dc-9b17-3cd2a2414607",
        "water": {
            "longname": "ELBE",
            "shortname": "ELBE"
        }
    },
    {
        "agency": "WSA DRESDEN",
        "km": 245.62,
        "latitude": 51.85133260782863,
        "longitude": 12.355386908862238,
        "longname": "VOCKERODE",
        "number": "501480",
        "shortname": "VOCKERODE",
        "uuid": "ae93f2a5-612e-4514-b5fd-9c8aecdd73c7",
        "water": {
            "longname": "ELBE",
            "shortname": "ELBE"
        }
    },
    {
        "agency": "WSA DRESDEN",
        "km": 257.84,
        "latitude": 51.8814073366522,
        "longitude": 12.236540981164824,
        "longname": "ROSSLAU",
        "number": "501490",
        "shortname": "ROSSLAU",
        "uuid": "e97116a4-7d30-4671-8ba1-cdce0a153d1d",
        "water": {
            "longname": "ELBE",
            "shortname": "ELBE"
        }
    },
    {
        "agency": "WSA DRESDEN",
        "km": 261.16,
        "latitude": 51.856888312230645,
        "longitude": 12.223276831448223,
        "longname": "DESSAU",
        "number": "502000",
        "shortname": "DESSAU",
        "uuid": "1edc5fa4-88af-47f5-95a4-0e77a06fe8b1",
        "water": {
            "longname": "ELBE",
            "shortname": "ELBE"
        }
    },
    {
        "agency": "WSA DRESDEN",
        "km": 274.75,
        "latitude": 51.857867421455005,
        "longitude": 12.058859064366539,
        "longname": "AKEN",
        "number": "502010",
        "shortname": "AKEN",
        "uuid": "094b96e5-caeb-46d3-a8ee-d44182add069",
        "water": {
            "longname": "ELBE",
            "shortname": "ELBE"
        }
    },
    {
        "agency": "WSA MAGDEBURG",
        "km": 294.82,
        "latitude": 51.98483374360124,
        "longitude": 11.882246426452301,
        "longname": "BARBY",
        "number": "502070",
        "shortname": "BARBY",
        "uuid": "939f82ec-15a9-49c8-8828-dc2f8a2d49e2",
        "water": {
            "longname": "ELBE",
            "shortname": "ELBE"
        }
    },
    {
        "agency": "WSA MAGDEBURG",
        "km": 311.76,
        "latitude": 52.02453372628083,
        "longitude": 11.738801713181422,
        "longname": "SCH\u00d6NEBECK",
        "number": "502130",
        "shortname": "SCH\u00d6NEBECK",
        "uuid": "90bcb315-f080-41a8-a0ac-6122331bb4cf",
        "water": {
            "longname": "ELBE",
            "shortname": "ELBE"
        }
    },
    {
        "agency": "WSA MAGDEBURG",
        "km": 325.39,
        "latitude": 52.11927104944553,
        "longitude": 11.634986074196531,
        "longname": "MAGDEBURG-BUCKAU",
        "number": "502170",
        "shortname": "MAGDEBURG-BUCKAU",
        "uuid": "b8567c1e-8610-4c2b-a240-65e8a74919fa",
        "water": {
            "longname": "ELBE",
            "shortname": "ELBE"
        }
    },
    {
        "agency": "WSA MAGDEBURG",
        "km": 326.67,
        "latitude": 52.129697761951476,
        "longitude": 11.644334378196518,
        "longname": "MAGDEBURG-STROMBR\u00dcCKE",
        "number": "502180",
        "shortname": "MAGDEBURG-STROMBR\u00dcCKE",
        "uuid": "ccccb57f-a2f9-4183-ae88-5710d3afaefd",
        "water": {
            "longname": "ELBE",
            "shortname": "ELBE"
        }
    },
    {
        "agency": "WSA MAGDEBURG",
        "km": 333.12,
        "latitude": 52.180952723286076,
        "longitude": 11.682653289015432,
        "longname": "ROTHENSEE",
        "number": "502210",
        "shortname": "ROTHENSEE",
        "uuid": "e30f2e83-b80b-4b96-8f39-fa60317afcc7",
        "water": {
            "longname": "ELBE",
            "shortname": "ELBE"
        }
    },
    {
        "agency": "WSA MAGDEBURG",
        "km": 343.6,
        "latitude": 52.249748325832506,
        "longitude": 11.73755447886122,
        "longname": "NIEGRIPP AP",
        "number": "502240",
        "shortname": "NIEGRIPP AP",
        "uuid": "3adf88fd-fd7a-41d0-84f5-1143c98a6564",
        "water": {
            "longname": "ELBE",
            "shortname": "ELBE"
        }
    },
    {
        "agency": "WSA MAGDEBURG",
        "km": 350.64,
        "latitude": 52.313845363822594,
        "longitude": 11.768833909111391,
        "longname": "ROG\u00c4TZ",
        "number": "502250",
        "shortname": "ROG\u00c4TZ",
        "uuid": "133f0f6c-2ca1-4798-9360-5b5f417dd839",
        "water": {
            "longname": "ELBE",
            "shortname": "ELBE"
        }
    },
    {
        "agency": "WSA MAGDEBURG",
        "km": 388.26,
        "latitude": 52.54130608476928,
        "longitude": 11.978056091329778,
        "longname": "TANGERM\u00dcNDE",
        "number": "502350",
        "shortname": "TANGERM\u00dcNDE",
        "uuid": "13e91b77-90f3-41a5-a320-641748e9c311",
        "water": {
            "longname": "ELBE",
            "shortname": "ELBE"
        }
    },
    {
        "agency": "WSA MAGDEBURG",
        "km": 396.11,
        "latitude": 52.61040476093329,
        "longitude": 12.00248266741288,
        "longname": "STORKAU",
        "number": "502370",
        "shortname": "STORKAU",
        "uuid": "de4cc1db-51cb-4b62-bee2-9750cbe4f5c4",
        "water": {
            "longname": "ELBE",
            "shortname": "ELBE"
        }
    },
    {
        "agency": "WSA MAGDEBURG",
        "km": 416.06,
        "latitude": 52.784769775069606,
        "longitude": 12.031305110634692,
        "longname": "SANDAU",
        "number": "502430",
        "shortname": "SANDAU",
        "uuid": "f4c55f77-ab80-4e00-bed3-aa6631aba074",
        "water": {
            "longname": "ELBE",
            "shortname": "ELBE"
        }
    },
    {
        "agency": "WSA MAGDEBURG",
        "km": 447.22,
        "latitude": 52.95696918182865,
        "longitude": 11.83755792821885,
        "longname": "SCHARLEUK",
        "number": "503030",
        "shortname": "SCHARLEUK",
        "uuid": "e32b0a28-8cd5-4053-bc86-fff9c6469106",
        "water": {
            "longname": "ELBE",
            "shortname": "ELBE"
        }
    },
    {
        "agency": "WSA MAGDEBURG",
        "km": 453.98,
        "latitude": 52.98552861101009,
        "longitude": 11.75944299732184,
        "longname": "WITTENBERGE",
        "number": "503050",
        "shortname": "WITTENBERGE",
        "uuid": "cbf3cd49-91bd-49cc-8926-ccc6c0e7eca4",
        "water": {
            "longname": "ELBE",
            "shortname": "ELBE"
        }
    },
    {
        "agency": "WSA MAGDEBURG",
        "km": 463.94,
        "latitude": 53.00790130889209,
        "longitude": 11.65621263391411,
        "longname": "M\u00dcGGENDORF",
        "number": "503070",
        "shortname": "M\u00dcGGENDORF",
        "uuid": "48f2661f-f9cb-4093-9d57-da2418ed656e",
        "water": {
            "longname": "ELBE",
            "shortname": "ELBE"
        }
    },
    {
        "agency": "WSA MAGDEBURG",
        "km": 474.56,
        "latitude": 53.03825049644637,
        "longitude": 11.569161666053072,
        "longname": "SCHNACKENBURG",
        "number": "5910010",
        "shortname": "SCHNACKENBURG",
        "uuid": "550e3885-a9d1-4e55-bd25-34228bd6d988",
        "water": {
            "longname": "ELBE",
            "shortname": "ELBE"
        }
    },
    {
        "agency": "WSA MAGDEBURG",
        "km": 484.7,
        "latitude": 53.079992970560305,
        "longitude": 11.455945648065999,
        "longname": "LENZEN",
        "number": "503120",
        "shortname": "LENZEN",
        "uuid": "c80a4f21-528c-4771-98d7-10cd591699a4",
        "water": {
            "longname": "ELBE",
            "shortname": "ELBE"
        }
    },
    {
        "agency": "WSA MAGDEBURG",
        "km": 492.95,
        "latitude": 53.05028175067159,
        "longitude": 11.349502776620287,
        "longname": "GORLEBEN",
        "number": "5910020",
        "shortname": "GORLEBEN",
        "uuid": "ac507f42-1593-49ea-865f-10b2523617c7",
        "water": {
            "longname": "ELBE",
            "shortname": "ELBE"
        }
    },
    {
        "agency": "WSA LAUENBURG",
        "km": 504.725,
        "latitude": 53.1403563002025,
        "longitude": 11.242932640396107,
        "longname": "D\u00d6MITZ",
        "number": "5910025",
        "shortname": "D\u00d6MITZ",
        "uuid": "6e3ea719-48b1-408a-bc55-0986c1e94cd5",
        "water": {
            "longname": "ELBE",
            "shortname": "ELBE"
        }
    },
    {
        "agency": "WSA LAUENBURG",
        "km": 509.35,
        "latitude": 53.13777045834148,
        "longitude": 11.179440956310591,
        "longname": "DAMNATZ",
        "number": "5910030",
        "shortname": "DAMNATZ",
        "uuid": "c233674f-259a-4304-b81f-dce1f415d85b",
        "water": {
            "longname": "ELBE",
            "shortname": "ELBE"
        }
    },
    {
        "agency": "WSA LAUENBURG",
        "km": 522.915,
        "latitude": 53.154627767415526,
        "longitude": 11.045477219403653,
        "longname": "HITZACKER",
        "number": "5920010",
        "shortname": "HITZACKER",
        "uuid": "a26e57c9-1cb8-4fca-ba80-9e02abc81df8",
        "water": {
            "longname": "ELBE",
            "shortname": "ELBE"
        }
    },
    {
        "agency": "WSA LAUENBURG",
        "km": 536.44,
        "latitude": 53.23227495420561,
        "longitude": 10.888809791040135,
        "longname": "NEU DARCHAU",
        "number": "5930010",
        "shortname": "NEU DARCHAU",
        "uuid": "67d6e882-b60c-40d3-975c-a6d7a2b4e40a",
        "water": {
            "longname": "ELBE",
            "shortname": "ELBE"
        }
    },
    {
        "agency": "WSA LAUENBURG",
        "km": 549.71,
        "latitude": 53.29437629468059,
        "longitude": 10.73532983500628,
        "longname": "BLECKEDE",
        "number": "5930020",
        "shortname": "BLECKEDE",
        "uuid": "6aa1cd8e-e528-4bcb-ba8e-705b6dcb7da2",
        "water": {
            "longname": "ELBE",
            "shortname": "ELBE"
        }
    },
    {
        "agency": "WSA LAUENBURG",
        "km": 559.46,
        "latitude": 53.375466836951226,
        "longitude": 10.717752844075033,
        "longname": "BOIZENBURG",
        "number": "5930033",
        "shortname": "BOIZENBURG",
        "uuid": "33e0bce0-13df-4ffc-be9d-f1a79e795e1c",
        "water": {
            "longname": "ELBE",
            "shortname": "ELBE"
        }
    },
    {
        "agency": "WSA LAUENBURG",
        "km": 568.97,
        "latitude": 53.36626795191103,
        "longitude": 10.558824624251303,
        "longname": "HOHNSTORF",
        "number": "5930040",
        "shortname": "HOHNSTORF",
        "uuid": "d9289367-c8aa-4b6a-b1ad-857fec94c6bb",
        "water": {
            "longname": "ELBE",
            "shortname": "ELBE"
        }
    },
    {
        "agency": "WSA LAUENBURG",
        "km": 573.8,
        "latitude": 53.376168564842324,
        "longitude": 10.48920565856956,
        "longname": "ARTLENBURG",
        "number": "5930050",
        "shortname": "ARTLENBURG",
        "uuid": "b3492c68-8373-4769-9b29-22f66635a478",
        "water": {
            "longname": "ELBE",
            "shortname": "ELBE"
        }
    },
    {
        "agency": "WSA LAUENBURG",
        "km": 583.36,
        "latitude": 53.42650078096063,
        "longitude": 10.374502723680603,
        "longname": "GEESTHACHT",
        "number": "5930060",
        "shortname": "GEESTHACHT",
        "uuid": "44f7e955-c97d-45c8-9ed7-19406806fb4c",
        "water": {
            "longname": "ELBE",
            "shortname": "ELBE"
        }
    },
    {
        "agency": "WSA LAUENBURG",
        "km": 586.0,
        "latitude": 53.42329357982252,
        "longitude": 10.334765293678318,
        "longname": "WEHR GEESTHACHT UP",
        "number": "5930062",
        "shortname": "WEHR GEESTHACHT UP",
        "uuid": "0f7f58a8-411f-43d9-b42a-e897e63c4faa",
        "water": {
            "longname": "ELBE",
            "shortname": "ELBE"
        }
    },
    {
        "agency": "WSA LAUENBURG",
        "km": 588.73,
        "latitude": 53.431200926576814,
        "longitude": 10.297376253613347,
        "longname": "ALTENGAMME",
        "number": "5930070",
        "shortname": "ALTENGAMME",
        "uuid": "2ee12b9a-f7fd-4856-82b9-6bdd850c2bba",
        "water": {
            "longname": "ELBE",
            "shortname": "ELBE"
        }
    },
    {
        "agency": "WSA LAUENBURG",
        "km": 598.2,
        "latitude": 53.39870390434762,
        "longitude": 10.18539294274835,
        "longname": "ZOLLENSPIEKER",
        "number": "5930090",
        "shortname": "ZOLLENSPIEKER",
        "uuid": "3de8ea26-ab29-4e46-adad-06198ba2e0b7",
        "water": {
            "longname": "ELBE",
            "shortname": "ELBE"
        }
    },
    {
        "agency": "WSA LAUENBURG",
        "km": 605.0,
        "latitude": 53.42868635965855,
        "longitude": 10.10108534214382,
        "longname": "OVER",
        "number": "5950010",
        "shortname": "OVER",
        "uuid": "b02ce5c0-64e9-4d24-90b9-269a28a1e9f9",
        "water": {
            "longname": "ELBE",
            "shortname": "ELBE"
        }
    },
    {
        "agency": "HAMBURG PORT AUTHORITY",
        "km": 609.88,
        "latitude": 53.461413851966704,
        "longitude": 10.064007910377194,
        "longname": "BUNTHAUS",
        "number": "5952020",
        "shortname": "BUNTHAUS",
        "uuid": "ae1b91d0-e746-4f65-9f64-2d2e23603a82",
        "water": {
            "longname": "ELBE",
            "shortname": "ELBE"
        }
    },
    {
        "agency": "HAMBURG PORT AUTHORITY",
        "km": 615.0,
        "latitude": 53.472725864524804,
        "longitude": 9.991814826063603,
        "longname": "HAMBURG-HARBURG",
        "number": "5952025",
        "shortname": "HAMBURG-HARBURG",
        "uuid": "706e5110-c5e2-4915-9989-c071fcb492ec",
        "water": {
            "longname": "ELBE",
            "shortname": "ELBE"
        }
    },
    {
        "agency": "HAMBURG PORT AUTHORITY",
        "km": 615.3,
        "latitude": 53.50839277564603,
        "longitude": 10.061584576548826,
        "longname": "SCH\u00d6PFSTELLE",
        "number": "5952030",
        "shortname": "SCH\u00d6PFSTELLE",
        "uuid": "fed4c295-7a01-463c-998e-70ebad8cd2cc",
        "water": {
            "longname": "ELBE",
            "shortname": "ELBE"
        }
    },
    {
        "agency": "HAMBURG PORT AUTHORITY",
        "km": 623.1,
        "latitude": 53.54568502657209,
        "longitude": 9.969996726842329,
        "longname": "HAMBURG ST. PAULI",
        "number": "5952050",
        "shortname": "HAMBURG ST. PAULI",
        "uuid": "d488c5cc-4de9-4631-8ce1-0db0e700b546",
        "water": {
            "longname": "ELBE",
            "shortname": "ELBE"
        }
    },
    {
        "agency": "HAMBURG PORT AUTHORITY",
        "km": 628.9,
        "latitude": 53.53956902594973,
        "longitude": 9.879567409613173,
        "longname": "SEEMANNSH\u00d6FT",
        "number": "5952060",
        "shortname": "SEEMANNSH\u00d6FT",
        "uuid": "816affba-0118-4668-887f-fb882ed573b2",
        "water": {
            "longname": "ELBE",
            "shortname": "ELBE"
        }
    },
    {
        "agency": "WSA HAMBURG",
        "km": 634.42,
        "latitude": 53.535943723982584,
        "longitude": 9.791537018911868,
        "longname": "CRANZ",
        "number": "5950070",
        "shortname": "CRANZ",
        "uuid": "e6b42536-6bf8-42e3-8ef5-7d1a283a8608",
        "water": {
            "longname": "ELBE",
            "shortname": "ELBE"
        }
    },
    {
        "agency": "HAMBURG PORT AUTHORITY",
        "km": 635.0,
        "latitude": 53.55772718103615,
        "longitude": 9.795825319280944,
        "longname": "BLANKENESE UF",
        "number": "5952065",
        "shortname": "BLANKENESE UF",
        "uuid": "bacb459b-0f24-4233-bb35-cd224a51678e",
        "water": {
            "longname": "ELBE",
            "shortname": "ELBE"
        }
    },
    {
        "agency": "WSA HAMBURG",
        "km": 641.0,
        "latitude": 53.567910528723715,
        "longitude": 9.702887479041944,
        "longname": "SCHULAU",
        "number": "5950090",
        "shortname": "SCHULAU",
        "uuid": "f3c6ee73-5561-4068-96ec-364016e7d9ef",
        "water": {
            "longname": "ELBE",
            "shortname": "ELBE"
        }
    },
    {
        "agency": "WSA HAMBURG",
        "km": 641.5,
        "latitude": 53.54823793633717,
        "longitude": 9.690490444910013,
        "longname": "HAHN\u00d6FER SAND WEST SIEL",
        "number": "126017",
        "shortname": "HAHN\u00d6FER SAND WEST SIEL",
        "uuid": "81c95d3a-3193-4e9c-a411-adf97c751a43",
        "water": {
            "longname": "ELBE",
            "shortname": "ELBE"
        }
    },
    {
        "agency": "WSA HAMBURG",
        "km": 643.0,
        "latitude": 53.56571128392121,
        "longitude": 9.672074804388942,
        "longname": "D1 HANSKALBSAND OBERFL\u00c4CHE",
        "number": "71160198",
        "shortname": "D1 HANSKALBSAND OBERFL\u00c4CHE",
        "uuid": "1c80e441-a1d7-400c-b569-e038c9876a4f",
        "water": {
            "longname": "ELBE",
            "shortname": "ELBE"
        }
    },
    {
        "agency": "WSA HAMBURG",
        "km": 645.5,
        "latitude": 53.57157451197346,
        "longitude": 9.633361851581585,
        "longname": "L\u00dcHORT",
        "number": "5960010",
        "shortname": "L\u00dcHORT",
        "uuid": "8d18d129-07f1-4c4d-adba-a985016be0b0",
        "water": {
            "longname": "ELBE",
            "shortname": "ELBE"
        }
    },
    {
        "agency": "WSA HAMBURG",
        "km": 650.5,
        "latitude": 53.60941130435129,
        "longitude": 9.584318424577651,
        "longname": "HETLINGEN",
        "number": "5970010",
        "shortname": "HETLINGEN",
        "uuid": "599c23b1-4550-41e3-a7e7-3056989927f1",
        "water": {
            "longname": "ELBE",
            "shortname": "ELBE"
        }
    },
    {
        "agency": "WSA HAMBURG",
        "km": 650.7,
        "latitude": 53.59875445021304,
        "longitude": 9.567137091002857,
        "longname": "TWIELENFLETH SIEL",
        "number": "126015",
        "shortname": "TWIELENFLETH SIEL",
        "uuid": "6d43098c-632d-4e89-996f-98b1c99e5630",
        "water": {
            "longname": "ELBE",
            "shortname": "ELBE"
        }
    },
    {
        "agency": "WSA HAMBURG",
        "km": 651.3,
        "latitude": 53.608025941016116,
        "longitude": 9.569255731082905,
        "longname": "D2 L\u00dcHESAND OBERFL\u00c4CHE",
        "number": "71160398",
        "shortname": "D2 L\u00dcHESAND OBERFL\u00c4CHE",
        "uuid": "3988cd01-1c7c-4bd3-a8ce-d324f73f346d",
        "water": {
            "longname": "ELBE",
            "shortname": "ELBE"
        }
    },
    {
        "agency": "WSA HAMBURG",
        "km": 654.86,
        "latitude": 53.629729269859254,
        "longitude": 9.52660227783838,
        "longname": "STADERSAND",
        "number": "5970013",
        "shortname": "STADERSAND",
        "uuid": "80f0fc4d-9fc7-449d-9d68-ee89333f0eff",
        "water": {
            "longname": "ELBE",
            "shortname": "ELBE"
        }
    },
    {
        "agency": "WSA HAMBURG",
        "km": 658.444,
        "latitude": 53.67138892766762,
        "longitude": 9.558227529245833,
        "longname": "PINNAU-SPERRWERK AP",
        "number": "5970019",
        "shortname": "PINNAU-SPERRWERK AP",
        "uuid": "391bbba5-83d4-4791-b07e-65ab29b423f6",
        "water": {
            "longname": "ELBE",
            "shortname": "ELBE"
        }
    },
    {
        "agency": "WSA HAMBURG",
        "km": 660.6,
        "latitude": 53.67790728314029,
        "longitude": 9.494906271967864,
        "longname": "GRAUERORT",
        "number": "5970020",
        "shortname": "GRAUERORT",
        "uuid": "ccf0645d-ddad-4c9e-b4f1-dc1f1edb2aa4",
        "water": {
            "longname": "ELBE",
            "shortname": "ELBE"
        }
    },
    {
        "agency": "WSA HAMBURG",
        "km": 660.738,
        "latitude": 53.67914967442031,
        "longitude": 9.494796126117517,
        "longname": "GRAUERORT REEDE",
        "number": "5970026",
        "shortname": "GRAUERORT REEDE",
        "uuid": "7398029b-c6a1-484f-b1f6-1afe568ee1e2",
        "water": {
            "longname": "ELBE",
            "shortname": "ELBE"
        }
    },
    {
        "agency": "WSA HAMBURG",
        "km": 663.3,
        "latitude": 53.71614057991539,
        "longitude": 9.526336706347767,
        "longname": "KR\u00dcCKAU-SPERRWERK AP",
        "number": "5970024",
        "shortname": "KR\u00dcCKAU-SPERRWERK AP",
        "uuid": "a653eb04-de2e-47f7-8e2c-09277cfe95ae",
        "water": {
            "longname": "ELBE",
            "shortname": "ELBE"
        }
    },
    {
        "agency": "WSA HAMBURG",
        "km": 666.9,
        "latitude": 53.731123436561475,
        "longitude": 9.459761691832878,
        "longname": "KOLLMAR",
        "number": "5970025",
        "shortname": "KOLLMAR",
        "uuid": "3ed90357-4b01-4119-b1c5-bd2c62871e7b",
        "water": {
            "longname": "ELBE",
            "shortname": "ELBE"
        }
    },
    {
        "agency": "WSA HAMBURG",
        "km": 671.75,
        "latitude": 53.75428442700496,
        "longitude": 9.391553456044239,
        "longname": "KRAUTSAND",
        "number": "5970030",
        "shortname": "KRAUTSAND",
        "uuid": "e651fe4a-d759-49c5-8e00-55137d0f2975",
        "water": {
            "longname": "ELBE",
            "shortname": "ELBE"
        }
    },
    {
        "agency": "WSA HAMBURG",
        "km": 671.787,
        "latitude": 53.7547049182697,
        "longitude": 9.391186976193614,
        "longname": "KRAUTSAND REEDE",
        "number": "5970031",
        "shortname": "KRAUTSAND REEDE",
        "uuid": "8c20b4dc-1540-4b14-8c88-0e1d87de22c4",
        "water": {
            "longname": "ELBE",
            "shortname": "ELBE"
        }
    },
    {
        "agency": "WSA HAMBURG",
        "km": 674.0,
        "latitude": 53.78436111734677,
        "longitude": 9.409429815364883,
        "longname": "GL\u00dcCKSTADT",
        "number": "5970035",
        "shortname": "GL\u00dcCKSTADT",
        "uuid": "1f1bbed7-c1fa-45b4-90d3-df94b50ad631",
        "water": {
            "longname": "ELBE",
            "shortname": "ELBE"
        }
    },
    {
        "agency": "WSA HAMBURG",
        "km": 676.5,
        "latitude": 53.79658489924948,
        "longitude": 9.3722470258039,
        "longname": "D4 RHINPLATTE-NORD OBERFL\u00c4CHE",
        "number": "71160798",
        "shortname": "D4 RHINPLATTE-NORD OBERFL\u00c4CHE",
        "uuid": "c8ff06a7-eac9-4db7-ab22-46954d4481cb",
        "water": {
            "longname": "ELBE",
            "shortname": "ELBE"
        }
    },
    {
        "agency": "WSA HAMBURG",
        "km": 678.636,
        "latitude": 53.82594572968708,
        "longitude": 9.400981175517032,
        "longname": "ST\u00d6R-SPERRWERK AP",
        "number": "5970041",
        "shortname": "ST\u00d6R-SPERRWERK AP",
        "uuid": "d9acdbec-61ff-4308-978a-2f4d1c2c4059",
        "water": {
            "longname": "ELBE",
            "shortname": "ELBE"
        }
    },
    {
        "agency": "WSA HAMBURG",
        "km": 684.2,
        "latitude": 53.86270347191609,
        "longitude": 9.316029583340883,
        "longname": "BROKDORF",
        "number": "5970050",
        "shortname": "BROKDORF",
        "uuid": "610ab204-d3c4-4a11-a38b-e31461fdcf27",
        "water": {
            "longname": "ELBE",
            "shortname": "ELBE"
        }
    },
    {
        "agency": "WSA HAMBURG",
        "km": 685.1,
        "latitude": 53.84689709635665,
        "longitude": 9.28820059301234,
        "longname": "SCH\u00d6NEWORTH SIEL",
        "number": "126005",
        "shortname": "SCH\u00d6NEWORTH SIEL",
        "uuid": "f973fb71-4a44-4603-8b13-25002dd6dbd8",
        "water": {
            "longname": "ELBE",
            "shortname": "ELBE"
        }
    },
    {
        "agency": "WSA CUXHAVEN",
        "km": 695.214,
        "latitude": 53.88780676587327,
        "longitude": 9.148744899065209,
        "longname": "BRUNSB\u00dcTTEL MPM",
        "number": "5970094",
        "shortname": "BRUNSB\u00dcTTEL MPM",
        "uuid": "d4f5f719-8c52-4f8d-945d-1c31404cc628",
        "water": {
            "longname": "ELBE",
            "shortname": "ELBE"
        }
    },
    {
        "agency": "WSA CUXHAVEN",
        "km": 695.7,
        "latitude": 53.88881898280839,
        "longitude": 9.144031265919063,
        "longname": "BRUNSB\u00dcTTEL MOLE 1",
        "number": "5970093",
        "shortname": "BRUNSB\u00dcTTEL MOLE 1",
        "uuid": "12847496-b0e9-4cb3-905c-b1b1c3c087db",
        "water": {
            "longname": "ELBE",
            "shortname": "ELBE"
        }
    },
    {
        "agency": "WSA CUXHAVEN",
        "km": 703.44,
        "latitude": 53.856368689225654,
        "longitude": 9.031629023778263,
        "longname": "OSTERIFF MPM",
        "number": "5970096",
        "shortname": "OSTERIFF MPM",
        "uuid": "eb90bd3f-5405-412d-81e0-7a58be52dcef",
        "water": {
            "longname": "ELBE",
            "shortname": "ELBE"
        }
    },
    {
        "agency": "WSA CUXHAVEN",
        "km": 714.02,
        "latitude": 53.83537004729649,
        "longitude": 8.870723820918473,
        "longname": "OTTERNDORF MPM",
        "number": "5990011",
        "shortname": "OTTERNDORF MPM",
        "uuid": "5140295e-b93e-4081-a920-642d89c7ca8b",
        "water": {
            "longname": "ELBE",
            "shortname": "ELBE"
        }
    },
    {
        "agency": "WSA CUXHAVEN",
        "km": 724.0,
        "latitude": 53.86768585758401,
        "longitude": 8.717424884873582,
        "longname": "CUXHAVEN STEUBENH\u00d6FT",
        "number": "5990020",
        "shortname": "CUXHAVEN STEUBENH\u00d6FT",
        "uuid": "aad49293-242a-43ad-a8b1-e91d7792c4b2",
        "water": {
            "longname": "ELBE",
            "shortname": "ELBE"
        }
    },
    {
        "agency": "WSA BRANDENBURG",
        "km": 326.83,
        "latitude": 52.25137396176887,
        "longitude": 11.762554814182451,
        "longname": "DETERSHAGEN",
        "number": "587505",
        "shortname": "DETERSHAGEN",
        "uuid": "a7b1eda9-bed4-4456-8e54-529828cdcbf9",
        "water": {
            "longname": "ELBE-HAVEL-KANAL",
            "shortname": "EHK"
        }
    },
    {
        "agency": "WSA BRANDENBURG",
        "km": 332.54,
        "latitude": 52.27673747300618,
        "longitude": 11.83202697629219,
        "longname": "BURG",
        "number": "587507",
        "shortname": "BURG",
        "uuid": "831ad501-d2fe-4782-ab83-4f1c8e0b15ff",
        "water": {
            "longname": "ELBE-HAVEL-KANAL",
            "shortname": "EHK"
        }
    },
    {
        "agency": "WSA BRANDENBURG",
        "km": 345.25,
        "latitude": 52.34391063213988,
        "longitude": 11.962203879639919,
        "longname": "ZERBEN OP",
        "number": "587510",
        "shortname": "ZERBEN OP",
        "uuid": "64c37072-db97-4e08-8981-c67f0282de5c",
        "water": {
            "longname": "ELBE-HAVEL-KANAL",
            "shortname": "EHK"
        }
    },
    {
        "agency": "WSA BRANDENBURG",
        "km": 345.63,
        "latitude": 52.34689508881927,
        "longitude": 11.964945434651396,
        "longname": "ZERBEN UP",
        "number": "587520",
        "shortname": "ZERBEN UP",
        "uuid": "532d8718-6ec7-4f12-bb2f-bde2dec50182",
        "water": {
            "longname": "ELBE-HAVEL-KANAL",
            "shortname": "EHK"
        }
    },
    {
        "agency": "WSA BRANDENBURG",
        "km": 361.444,
        "latitude": 52.41085678373606,
        "longitude": 12.140021546748295,
        "longname": "GENTHIN",
        "number": "587535",
        "shortname": "GENTHIN",
        "uuid": "e9e7f20c-9f74-41fd-b054-cad59fca2cd4",
        "water": {
            "longname": "ELBE-HAVEL-KANAL",
            "shortname": "EHK"
        }
    },
    {
        "agency": "WSA BRANDENBURG",
        "km": 371.285,
        "latitude": 52.39704868721982,
        "longitude": 12.279351110358602,
        "longname": "KADE",
        "number": "587541",
        "shortname": "KADE",
        "uuid": "e4f29379-6fd3-4501-afc5-bc5a41cb6e93",
        "water": {
            "longname": "ELBE-HAVEL-KANAL",
            "shortname": "EHK"
        }
    },
    {
        "agency": "WSA BRANDENBURG",
        "km": 376.56,
        "latitude": 52.39427213147182,
        "longitude": 12.356118651827487,
        "longname": "WUSTERWITZ OP",
        "number": "587540",
        "shortname": "WUSTERWITZ OP",
        "uuid": "c6a12d34-c78f-44a2-a7ff-4b8d88f316cc",
        "water": {
            "longname": "ELBE-HAVEL-KANAL",
            "shortname": "EHK"
        }
    },
    {
        "agency": "WSA BRANDENBURG",
        "km": 376.965,
        "latitude": 52.39283506576701,
        "longitude": 12.370473537607854,
        "longname": "WUSTERWITZ UP",
        "number": "587550",
        "shortname": "WUSTERWITZ UP",
        "uuid": "3bfcf759-27b3-4042-b59a-f6c8ed9e533e",
        "water": {
            "longname": "ELBE-HAVEL-KANAL",
            "shortname": "EHK"
        }
    },
    {
        "agency": "WSA UELZEN",
        "km": 9.72,
        "latitude": 52.477670650488086,
        "longitude": 10.667920057338705,
        "longname": "OSLOSS",
        "number": "90100100",
        "shortname": "OSLOSS",
        "uuid": "6c5b6422-126d-4bf0-8856-7b86d74ea1b3",
        "water": {
            "longname": "ELBESEITENKANAL",
            "shortname": "ESK"
        }
    },
    {
        "agency": "WSA UELZEN",
        "km": 39.0,
        "latitude": 52.727726793925115,
        "longitude": 10.66447739629255,
        "longname": "WITTINGEN",
        "number": "90100101",
        "shortname": "WITTINGEN",
        "uuid": "9cf795ce-8bdf-494b-b8c6-ef1bfb89c08b",
        "water": {
            "longname": "ELBESEITENKANAL",
            "shortname": "ESK"
        }
    },
    {
        "agency": "WSA UELZEN",
        "km": 60.38,
        "latitude": 52.90933657890343,
        "longitude": 10.614719701462517,
        "longname": "UELZEN OW",
        "number": "90100111",
        "shortname": "UELZEN OW",
        "uuid": "728bd3e3-23f2-41c6-8ac5-4cfa223a5a7e",
        "water": {
            "longname": "ELBESEITENKANAL",
            "shortname": "ESK"
        }
    },
    {
        "agency": "WSA UELZEN",
        "km": 60.68,
        "latitude": 52.91193193258229,
        "longitude": 10.613515486381901,
        "longname": "UELZEN",
        "number": "90100113",
        "shortname": "UELZEN",
        "uuid": "3eba7da6-fbd6-431c-91d3-522ec49275f0",
        "water": {
            "longname": "ELBESEITENKANAL",
            "shortname": "ESK"
        }
    },
    {
        "agency": "WSA UELZEN",
        "km": 60.98,
        "latitude": 52.91452727407878,
        "longitude": 10.61231113033207,
        "longname": "UELZEN UW",
        "number": "90100110",
        "shortname": "UELZEN UW",
        "uuid": "0d0082cf-0b4b-4c8b-8e97-5d37b511916b",
        "water": {
            "longname": "ELBESEITENKANAL",
            "shortname": "ESK"
        }
    },
    {
        "agency": "WSA UELZEN",
        "km": 79.72,
        "latitude": 53.07479652486107,
        "longitude": 10.603346356554992,
        "longname": "BEVENSEN",
        "number": "90100112",
        "shortname": "BEVENSEN",
        "uuid": "b8997708-53d0-4932-8fbf-265083e11517",
        "water": {
            "longname": "ELBESEITENKANAL",
            "shortname": "ESK"
        }
    },
    {
        "agency": "WSA UELZEN",
        "km": 103.97,
        "latitude": 53.272487644066715,
        "longitude": 10.485459016759826,
        "longname": "LUENEBURG OW",
        "number": "90100121",
        "shortname": "LUENEBURG OW",
        "uuid": "c7364d1e-6139-4575-84cb-b420d21275c4",
        "water": {
            "longname": "ELBESEITENKANAL",
            "shortname": "ESK"
        }
    },
    {
        "agency": "WSA UELZEN",
        "km": 105.14,
        "latitude": 53.282959066596696,
        "longitude": 10.486987882835402,
        "longname": "LUENEBURG",
        "number": "90100123",
        "shortname": "LUENEBURG",
        "uuid": "f348f2f6-37c2-41c2-8d53-fd06a18acce0",
        "water": {
            "longname": "ELBESEITENKANAL",
            "shortname": "ESK"
        }
    },
    {
        "agency": "WSA UELZEN",
        "km": 106.31,
        "latitude": 53.293428170710264,
        "longitude": 10.488563061269604,
        "longname": "LUENEBURG UW",
        "number": "90100120",
        "shortname": "LUENEBURG UW",
        "uuid": "d18033cd-9cf6-4800-9176-57758bb444dc",
        "water": {
            "longname": "ELBESEITENKANAL",
            "shortname": "ESK"
        }
    },
    {
        "agency": "WSA UELZEN",
        "km": 114.74,
        "latitude": 53.368564025269755,
        "longitude": 10.501986716627133,
        "longname": "ARTLENBURG-ELK",
        "number": "90100122",
        "shortname": "ARTLENBURG-ELK",
        "uuid": "7fec2f4f-6a2e-47ec-8f3c-016c581e4bbd",
        "water": {
            "longname": "ELBESEITENKANAL",
            "shortname": "ESK"
        }
    },
    {
        "agency": "WSA LAUENBURG",
        "km": 3.37,
        "latitude": 53.81755527881617,
        "longitude": 10.625359636016615,
        "longname": "BUESSAU UP",
        "number": "9669040",
        "shortname": "BUESSAU UP",
        "uuid": "bf7bb8e8-e81f-4655-9e84-28738feae936",
        "water": {
            "longname": "ELK",
            "shortname": "ELBE-L\u00dcBECK-KANAL"
        }
    },
    {
        "agency": "WSA LAUENBURG",
        "km": 20.598,
        "latitude": 53.67203570705899,
        "longitude": 10.636875854439548,
        "longname": "DONNERSCHLEUSE OP",
        "number": "9660049",
        "shortname": "DONNERSCHLEUSE OP",
        "uuid": "45634232-36ac-416c-806d-5f64201dae2c",
        "water": {
            "longname": "ELK",
            "shortname": "ELBE-L\u00dcBECK-KANAL"
        }
    },
    {
        "agency": "WSA LAUENBURG",
        "km": 26.75,
        "latitude": 53.624400353882585,
        "longitude": 10.67482297794653,
        "longname": "M\u00d6LLN",
        "number": "9660050",
        "shortname": "M\u00d6LLN",
        "uuid": "46644438-83d6-4da8-a2a1-1deb2cb67561",
        "water": {
            "longname": "ELK",
            "shortname": "ELBE-L\u00dcBECK-KANAL"
        }
    },
    {
        "agency": "WSA MEPPEN",
        "longname": "VERSEN WEHR OP",
        "number": "3730001",
        "shortname": "VERSEN WEHR OP",
        "uuid": "86f8dbab-6a64-408b-a5d5-69e69f01db2f",
        "water": {
            "longname": "EMS",
            "shortname": "EMS"
        }
    },
    {
        "agency": "WSA EMS-NORDSEE",
        "km": 0.39,
        "latitude": 53.10819077388404,
        "longitude": 7.365594761853153,
        "longname": "PAPENBURG",
        "number": "3790010",
        "shortname": "PAPENBURG",
        "uuid": "ec4a598d-773d-44c1-935e-2053b54e45a3",
        "water": {
            "longname": "EMS",
            "shortname": "EMS"
        }
    },
    {
        "agency": "WSA EMS-NORDSEE",
        "km": 6.852,
        "latitude": 53.161187968385896,
        "longitude": 7.371913437651044,
        "longname": "WEENER",
        "number": "3790020",
        "shortname": "WEENER",
        "uuid": "aa6af4e6-a44f-46c4-abf6-449f8a68bab1",
        "water": {
            "longname": "EMS",
            "shortname": "EMS"
        }
    },
    {
        "agency": "WSA EMS-NORDSEE",
        "km": 14.79,
        "latitude": 53.21533512811442,
        "longitude": 7.426190802733352,
        "longname": "LEERORT",
        "number": "3910010",
        "shortname": "LEERORT",
        "uuid": "abb23dad-0880-41ab-8d2d-dd33e11f148f",
        "water": {
            "longname": "EMS",
            "shortname": "EMS"
        }
    },
    {
        "agency": "WSA EMS-NORDSEE",
        "km": 24.67,
        "latitude": 53.29270395998908,
        "longitude": 7.396102412436918,
        "longname": "TERBORG",
        "number": "3910020",
        "shortname": "TERBORG",
        "uuid": "244cae8b-ce75-4c2d-a66e-cb804f8335a2",
        "water": {
            "longname": "EMS",
            "shortname": "EMS"
        }
    },
    {
        "agency": "WSA EMS-NORDSEE",
        "km": 35.302,
        "latitude": 53.32135061212295,
        "longitude": 7.259801109021896,
        "longname": "POGUM",
        "number": "3950020",
        "shortname": "POGUM",
        "uuid": "5d1e4350-0f39-4428-84c3-6f8f0bbe80d4",
        "water": {
            "longname": "EMS",
            "shortname": "EMS"
        }
    },
    {
        "agency": "WSA EMS-NORDSEE",
        "km": 40.45,
        "latitude": 53.3367809193986,
        "longitude": 7.186347889541317,
        "longname": "EMDEN NEUE SEESCHLEUSE",
        "number": "3970010",
        "shortname": "EMDEN NEUE SEESCHLEUSE",
        "uuid": "edfdf747-be92-462f-87ed-53d228a33172",
        "water": {
            "longname": "EMS",
            "shortname": "EMS"
        }
    },
    {
        "agency": "WSA EMS-NORDSEE",
        "km": 50.848,
        "latitude": 53.3271726846511,
        "longitude": 7.03067362267113,
        "longname": "KNOCK",
        "number": "3990010",
        "shortname": "KNOCK",
        "uuid": "438b565e-f293-43c8-8771-377e555ed5ec",
        "water": {
            "longname": "EMS",
            "shortname": "EMS"
        }
    },
    {
        "agency": "WSA EMS-NORDSEE",
        "km": 65.69,
        "latitude": 53.43360175624244,
        "longitude": 6.926206572590535,
        "longname": "DUKEGAT",
        "number": "3990020",
        "shortname": "DUKEGAT",
        "uuid": "7753c1fa-34d8-4d09-a7c7-38024079117c",
        "water": {
            "longname": "EMS",
            "shortname": "EMS"
        }
    },
    {
        "agency": "WSA EMS-NORDSEE",
        "km": 74.32,
        "latitude": 53.493516863381444,
        "longitude": 6.8412044381103785,
        "longname": "EMSH\u00d6RN",
        "number": "9340010",
        "shortname": "EMSH\u00d6RN",
        "uuid": "c8af067c-ba6a-4a76-86d8-1ce8e532ef8b",
        "water": {
            "longname": "EMS",
            "shortname": "EMS"
        }
    },
    {
        "agency": "WSA MEPPEN",
        "km": 102.177,
        "latitude": 52.04026675873374,
        "longitude": 7.680240800859249,
        "longname": "FUESTRUP",
        "number": "3310010",
        "shortname": "FUESTRUP",
        "uuid": "3a8ed45f-28e7-4263-8437-d926c6a194f4",
        "water": {
            "longname": "EMS",
            "shortname": "EMS"
        }
    },
    {
        "agency": "WSA MEPPEN",
        "km": 153.03,
        "latitude": 52.28802625706214,
        "longitude": 7.4340780399463275,
        "longname": "RHEINE UNTERSCHLEUSE",
        "number": "3390020",
        "shortname": "RHEINE UNTERSCHLEUSE",
        "uuid": "50a449ba-af4c-42c7-b2c4-9a3eda37e1e3",
        "water": {
            "longname": "EMS",
            "shortname": "EMS"
        }
    },
    {
        "agency": "WSA MEPPEN",
        "km": 196.2,
        "latitude": 52.49658867981537,
        "longitude": 7.288341577719381,
        "longname": "LINGEN-DARME",
        "number": "3500015",
        "shortname": "LINGEN-DARME",
        "uuid": "200363fc-cdc5-4c22-a271-a25d1ba880ed",
        "water": {
            "longname": "EMS",
            "shortname": "EMS"
        }
    },
    {
        "agency": "WSA MEPPEN",
        "km": 212.04,
        "latitude": 52.59560286578248,
        "longitude": 7.2485301016630315,
        "longname": "DALUM",
        "number": "3550040",
        "shortname": "DALUM",
        "uuid": "ad357e52-0978-4583-91e6-bc03a222f655",
        "water": {
            "longname": "EMS",
            "shortname": "EMS"
        }
    },
    {
        "agency": "WSA MEPPEN",
        "km": 234.78,
        "latitude": 52.73298291253683,
        "longitude": 7.241939245128032,
        "longname": "VERSEN WEHRDURCHSTICH",
        "number": "3730010",
        "shortname": "VERSEN WEHRDURCHSTICH",
        "uuid": "6de43652-2db9-4627-a255-9cb1f8efb820",
        "water": {
            "longname": "EMS",
            "shortname": "EMS"
        }
    },
    {
        "agency": "WSA HAMBURG",
        "km": 0.71,
        "latitude": 53.48044959691865,
        "longitude": 9.703368910151168,
        "longname": "BUXTEHUDE",
        "number": "5950080",
        "shortname": "BUXTEHUDE",
        "uuid": "8a08c920-c911-43e5-90dd-27d4d4e757d0",
        "water": {
            "longname": "ESTE",
            "shortname": "ESTE"
        }
    },
    {
        "agency": "WSA HAMBURG",
        "km": 1.0,
        "latitude": 53.532826669663045,
        "longitude": 9.776501861535763,
        "longname": "ESTE INNERES SPERRWERK BP",
        "number": "5950081",
        "shortname": "ESTE INNERES SPERRWERK BP",
        "uuid": "5fea1a12-326f-4919-ac9a-02f9fa11ab57",
        "water": {
            "longname": "ESTE",
            "shortname": "ESTE"
        }
    },
    {
        "agency": "WSA HAMBURG",
        "km": 1.0,
        "latitude": 53.53302505387036,
        "longitude": 9.77675237091593,
        "longname": "ESTE INNERES SPERRWERK AP",
        "number": "5950082",
        "shortname": "ESTE INNERES SPERRWERK AP",
        "uuid": "227b83f7-1302-4d7e-8d70-899036ff4ce2",
        "water": {
            "longname": "ESTE",
            "shortname": "ESTE"
        }
    },
    {
        "agency": "WSA EBERSWALDE",
        "km": 59.2,
        "latitude": 52.839182627632134,
        "longitude": 13.566246650747015,
        "longname": "RUHLSDORF OP",
        "number": "693010",
        "shortname": "RUHLSDORF OP",
        "uuid": "6629a4ca-4e2e-40b8-a66c-964d906c6911",
        "water": {
            "longname": "FINOWKANAL",
            "shortname": "FiK"
        }
    },
    {
        "agency": "WSA EBERSWALDE",
        "km": 61.1,
        "latitude": 52.837698594121505,
        "longitude": 13.593943266745564,
        "longname": "LEESENBRUECK OP",
        "number": "693030",
        "shortname": "LEESENBRUECK OP",
        "uuid": "f099ce74-1a3d-4d47-9810-75c2b1b178b6",
        "water": {
            "longname": "FINOWKANAL",
            "shortname": "FiK"
        }
    },
    {
        "agency": "WSA EBERSWALDE",
        "km": 63.318,
        "latitude": 52.84204278735456,
        "longitude": 13.625712942211283,
        "longname": "GRAFENBRUECK OP",
        "number": "693050",
        "shortname": "GRAFENBRUECK OP",
        "uuid": "547422fb-364e-4870-9977-c7782f0712e2",
        "water": {
            "longname": "FINOWKANAL",
            "shortname": "FiK"
        }
    },
    {
        "agency": "WSA EBERSWALDE",
        "km": 67.5,
        "latitude": 52.84671301594642,
        "longitude": 13.682534375603925,
        "longname": "SCHOEPFURTH OP",
        "number": "693070",
        "shortname": "SCHOEPFURTH OP",
        "uuid": "6386de1c-0426-4795-b23d-7ea2754ec782",
        "water": {
            "longname": "FINOWKANAL",
            "shortname": "FiK"
        }
    },
    {
        "agency": "WSA EBERSWALDE",
        "km": 77.9,
        "latitude": 52.83582034251613,
        "longitude": 13.820901248643345,
        "longname": "EBERSWALDE OP",
        "number": "693170",
        "shortname": "EBERSWALDE OP",
        "uuid": "3cd46cc7-b94d-424f-a860-c389dd9992a4",
        "water": {
            "longname": "FINOWKANAL",
            "shortname": "FiK"
        }
    },
    {
        "agency": "WSA EBERSWALDE",
        "km": 81.0,
        "latitude": 52.84929577160606,
        "longitude": 13.856280456933005,
        "longname": "RAGOESE OP",
        "number": "693190",
        "shortname": "RAGOESE OP",
        "uuid": "b6bbe4f8-aa59-414a-8292-2d3919590a20",
        "water": {
            "longname": "FINOWKANAL",
            "shortname": "FiK"
        }
    },
    {
        "agency": "WSA EBERSWALDE",
        "km": 84.4,
        "latitude": 52.84003259518914,
        "longitude": 13.902174069639482,
        "longname": "STECHER OP",
        "number": "693210",
        "shortname": "STECHER OP",
        "uuid": "516fbf8c-dc08-4808-b39b-1fa65a462180",
        "water": {
            "longname": "FINOWKANAL",
            "shortname": "FiK"
        }
    },
    {
        "agency": "WSA EBERSWALDE",
        "km": 88.9,
        "latitude": 52.84899598509975,
        "longitude": 13.953351900793756,
        "longname": "LIEPE OP",
        "number": "693230",
        "shortname": "LIEPE OP",
        "uuid": "6f81b35f-8339-4012-8029-ca193403e52c",
        "water": {
            "longname": "FINOWKANAL",
            "shortname": "FiK"
        }
    },
    {
        "agency": "WSA EBERSWALDE",
        "km": 88.9,
        "latitude": 52.849469196281994,
        "longitude": 13.95402333786989,
        "longname": "LIEPE UP",
        "number": "693240",
        "shortname": "LIEPE UP",
        "uuid": "79d783d3-e423-4c6d-b914-d7b7d161a89f",
        "water": {
            "longname": "FINOWKANAL",
            "shortname": "FiK"
        }
    },
    {
        "agency": "WSA HAMBURG",
        "km": 0.45,
        "latitude": 53.8269255247804,
        "longitude": 9.295079440408715,
        "longname": "FREIBURG SPERRWERK",
        "number": "126006",
        "shortname": "FREIBURG SPERRWERK",
        "uuid": "d3e21e8a-99ce-4033-8db6-9d0f0648beb3",
        "water": {
            "longname": "FREIBURGER HAFENPRIEL",
            "shortname": "Freiburger Hafenpriel"
        }
    },
    {
        "agency": "WSA HANNOVERSCH M\u00dcNDEN",
        "km": 3.61,
        "latitude": 51.40349164753268,
        "longitude": 9.632042475708742,
        "longname": "BONAFORTH",
        "number": "42900201",
        "shortname": "BONAFORTH",
        "uuid": "23721dfd-9b89-4b69-af80-063229917f27",
        "water": {
            "longname": "FULDA",
            "shortname": "FULDA"
        }
    },
    {
        "agency": "WSA HANNOVERSCH M\u00dcNDEN",
        "km": 43.99,
        "latitude": 51.22658020045521,
        "longitude": 9.46933329275977,
        "longname": "GUNTERSHAUSEN",
        "number": "42900100",
        "shortname": "GUNTERSHAUSEN",
        "uuid": "213a585d-d665-4be7-96a4-78a992b9614d",
        "water": {
            "longname": "FULDA",
            "shortname": "FULDA"
        }
    },
    {
        "agency": "WSA HANNOVERSCH M\u00dcNDEN",
        "km": 55.49,
        "latitude": 51.193130668351344,
        "longitude": 9.49819441574543,
        "longname": "GREBENAU",
        "number": "42700202",
        "shortname": "GREBENAU",
        "uuid": "acd63934-e40d-4650-a094-01cea45432be",
        "water": {
            "longname": "FULDA",
            "shortname": "FULDA"
        }
    },
    {
        "agency": "WSA HANNOVERSCH M\u00dcNDEN",
        "km": 95.69,
        "latitude": 51.00376747727409,
        "longitude": 9.72044974360598,
        "longname": "ROTENBURG",
        "number": "42700100",
        "shortname": "ROTENBURG",
        "uuid": "d1ba62a4-767b-49ba-9ce8-ab17537b2fe1",
        "water": {
            "longname": "FULDA",
            "shortname": "FULDA"
        }
    },
    {
        "agency": "WSA BREMEN",
        "km": 25.45,
        "latitude": 53.18192796624425,
        "longitude": 8.763345493242257,
        "longname": "RITTERHUDE",
        "number": "4940030",
        "shortname": "RITTERHUDE",
        "uuid": "f49855d8-371f-4bdf-8ade-ed6b475e6b27",
        "water": {
            "longname": "HAMME",
            "shortname": "HAMME"
        }
    },
    {
        "agency": "WSA BERLIN",
        "km": 0.55,
        "latitude": 52.54006396763462,
        "longitude": 13.209346222164326,
        "longname": "BERLIN-SPANDAU UP",
        "number": "580310",
        "shortname": "BERLIN-SPANDAU UP",
        "uuid": "2c68509c-bf1e-4866-9ec4-b26b231e5e04",
        "water": {
            "longname": "HAVEL-ODER-WASSERSTRASSE",
            "shortname": "HOW"
        }
    },
    {
        "agency": "WSA BERLIN",
        "km": 0.76,
        "latitude": 52.54185549253914,
        "longitude": 13.209041700232952,
        "longname": "BERLIN-SPANDAU OP",
        "number": "580300",
        "shortname": "BERLIN-SPANDAU OP",
        "uuid": "e607a4b6-85cc-4f12-a53d-116cb6eef4f5",
        "water": {
            "longname": "HAVEL-ODER-WASSERSTRASSE",
            "shortname": "HOW"
        }
    },
    {
        "agency": "WSA EBERSWALDE",
        "km": 20.3,
        "latitude": 52.70048541451592,
        "longitude": 13.251248157094599,
        "longname": "BORGSDORF",
        "number": "581591",
        "shortname": "BORGSDORF",
        "uuid": "1b2e2996-c2ef-4d9c-9052-ced8cb7bc226",
        "water": {
            "longname": "HAVEL-ODER-WASSERSTRASSE",
            "shortname": "HOW"
        }
    },
    {
        "agency": "WSA EBERSWALDE",
        "km": 28.43,
        "latitude": 52.767405265072625,
        "longitude": 13.280309399537114,
        "longname": "LEHNITZ UP",
        "number": "581590",
        "shortname": "LEHNITZ UP",
        "uuid": "5bb1f56d-7c56-4b01-9da0-2a08a0aaedeb",
        "water": {
            "longname": "HAVEL-ODER-WASSERSTRASSE",
            "shortname": "HOW"
        }
    },
    {
        "agency": "WSA EBERSWALDE",
        "km": 28.746,
        "latitude": 52.767556872159204,
        "longitude": 13.2804175617252,
        "longname": "LEHNITZ OP",
        "number": "581580",
        "shortname": "LEHNITZ OP",
        "uuid": "c8a1cf0a-9441-47aa-8c64-64e8962a9bd4",
        "water": {
            "longname": "HAVEL-ODER-WASSERSTRASSE",
            "shortname": "HOW"
        }
    },
    {
        "agency": "WSA EBERSWALDE",
        "km": 77.428,
        "latitude": 52.85006819187145,
        "longitude": 13.936478050751903,
        "longname": "NIEDERFINOW SHW OP",
        "number": "692080",
        "shortname": "NIEDERFINOW SHW OP",
        "uuid": "414dd4ee-b38b-489f-a1fe-19b1d62f3202",
        "water": {
            "longname": "HAVEL-ODER-WASSERSTRASSE",
            "shortname": "HOW"
        }
    },
    {
        "agency": "WSA EBERSWALDE",
        "km": 77.972,
        "latitude": 52.849041883415836,
        "longitude": 13.944325796325481,
        "longname": "NIEDERFINOW SHW UP",
        "number": "692090",
        "shortname": "NIEDERFINOW SHW UP",
        "uuid": "4eec6b25-6b02-4448-b5db-10843c8d6175",
        "water": {
            "longname": "HAVEL-ODER-WASSERSTRASSE",
            "shortname": "HOW"
        }
    },
    {
        "agency": "WSA EBERSWALDE",
        "km": 92.715,
        "latitude": 52.87425859247676,
        "longitude": 14.149328038858735,
        "longname": "HOHENSAATEN WEST BP",
        "number": "603310",
        "shortname": "HOHENSAATEN WEST BP",
        "uuid": "3404a6e5-8dfe-42b1-90f6-c0c3741b6ac8",
        "water": {
            "longname": "HAVEL-ODER-WASSERSTRASSE",
            "shortname": "HOW"
        }
    },
    {
        "agency": "WSA EBERSWALDE",
        "km": 93.035,
        "latitude": 52.87669350564356,
        "longitude": 14.151790544688126,
        "longname": "HOHENSAATEN WEST AP",
        "number": "603400",
        "shortname": "HOHENSAATEN WEST AP",
        "uuid": "99309d3e-58d6-4200-b212-c8499467b4ce",
        "water": {
            "longname": "HAVEL-ODER-WASSERSTRASSE",
            "shortname": "HOW"
        }
    },
    {
        "agency": "WSA EBERSWALDE",
        "km": 123.476,
        "latitude": 53.068882655421824,
        "longitude": 14.321854551570592,
        "longname": "SCHWEDT SCHLEUSE BP",
        "number": "603410",
        "shortname": "SCHWEDT SCHLEUSE BP",
        "uuid": "4ee515f9-8cfb-4835-8460-8dde0b978fbe",
        "water": {
            "longname": "HAVEL-ODER-WASSERSTRASSE",
            "shortname": "HOW"
        }
    },
    {
        "agency": "WSA EBERSWALDE",
        "km": 133.712,
        "latitude": 53.155890588193245,
        "longitude": 14.357228871006395,
        "longname": "FRIEDRICHSTHAL",
        "number": "603420",
        "shortname": "FRIEDRICHSTHAL",
        "uuid": "314945d6-b499-40cf-bb21-d76cf4547e3a",
        "water": {
            "longname": "HAVEL-ODER-WASSERSTRASSE",
            "shortname": "HOW"
        }
    },
    {
        "agency": "WSA BRANDENBURG",
        "km": 8.676,
        "latitude": 52.60786219342105,
        "longitude": 13.08886441720241,
        "longname": "SCH\u00d6NWALDE OP",
        "number": "587050",
        "shortname": "SCH\u00d6NWALDE OP",
        "uuid": "d8ef9f21-479e-4504-8bf7-aef2dbe6184d",
        "water": {
            "longname": "HAVELKANAL",
            "shortname": "HvK"
        }
    },
    {
        "agency": "WSA BRANDENBURG",
        "km": 9.002,
        "latitude": 52.607726362162936,
        "longitude": 13.084078146108572,
        "longname": "SCH\u00d6NWALDE UP",
        "number": "587060",
        "shortname": "SCH\u00d6NWALDE UP",
        "uuid": "b6650b13-582b-4d54-adac-991ac140e039",
        "water": {
            "longname": "HAVELKANAL",
            "shortname": "HvK"
        }
    },
    {
        "agency": "WSA BREMEN",
        "km": 0.547,
        "latitude": 53.14022907819447,
        "longitude": 8.234080885188327,
        "longname": "OLDENBURG-DRIELAKE",
        "number": "4960030",
        "shortname": "OLDENBURG-DRIELAKE",
        "uuid": "1b51e55e-088a-44c3-a633-b1bee44422d7",
        "water": {
            "longname": "HUNTE",
            "shortname": "HUNTE"
        }
    },
    {
        "agency": "WSA BREMEN",
        "km": 7.552,
        "latitude": 53.16120722971422,
        "longitude": 8.322516425323332,
        "longname": "REITHOERNE",
        "number": "4960040",
        "shortname": "REITHOERNE",
        "uuid": "c9df61c4-2a0b-47bd-8b51-fef7f430e528",
        "water": {
            "longname": "HUNTE",
            "shortname": "HUNTE"
        }
    },
    {
        "agency": "WSA BREMEN",
        "km": 11.535,
        "latitude": 53.16814366204687,
        "longitude": 8.378497094469848,
        "longname": "HOLLERSIEL",
        "number": "4960050",
        "shortname": "HOLLERSIEL",
        "uuid": "2eacef2f-7a8f-413a-a2c7-f1da4cf22742",
        "water": {
            "longname": "HUNTE",
            "shortname": "HUNTE"
        }
    },
    {
        "agency": "WSA BREMEN",
        "km": 14.249,
        "latitude": 53.179899152038196,
        "longitude": 8.412609597352633,
        "longname": "BUTTELERH\u00d6RNE",
        "number": "4960060",
        "shortname": "BUTTELERH\u00d6RNE",
        "uuid": "b3d88ca6-ea13-4540-a623-c02e43800a3b",
        "water": {
            "longname": "HUNTE",
            "shortname": "HUNTE"
        }
    },
    {
        "agency": "WSA BREMEN",
        "km": 17.814,
        "latitude": 53.20028313594166,
        "longitude": 8.447392883379909,
        "longname": "HUNTEBRUECK",
        "number": "4960070",
        "shortname": "HUNTEBRUECK",
        "uuid": "2e1d458b-f78f-41dc-bebd-e0512578610a",
        "water": {
            "longname": "HUNTE",
            "shortname": "HUNTE"
        }
    },
    {
        "agency": "WSA BREMEN",
        "km": 21.493,
        "latitude": 53.22122319633537,
        "longitude": 8.459939466394742,
        "longname": "ELSFLETH OHRT",
        "number": "4960080",
        "shortname": "ELSFLETH OHRT",
        "uuid": "531da758-b2f5-471d-9d9f-a78576081079",
        "water": {
            "longname": "HUNTE",
            "shortname": "HUNTE"
        }
    },
    {
        "agency": "REGIONALSTELLE SUHL",
        "km": 12.0,
        "latitude": 50.680935109710866,
        "longitude": 10.928789935384831,
        "longname": "ILMENAU",
        "number": "166640",
        "shortname": "ILMENAU",
        "uuid": "003200ab-d138-49d9-aa52-217817941f85",
        "water": {
            "longname": "ILM",
            "shortname": "ILM"
        }
    },
    {
        "agency": "WSA LAUENBURG",
        "km": 1.48,
        "latitude": 53.26103853118387,
        "longitude": 10.41988826867243,
        "longname": "L\u00dcNE",
        "number": "5940020",
        "shortname": "L\u00dcNE",
        "uuid": "d7a8df36-2978-45b8-99d1-76d84cf34c01",
        "water": {
            "longname": "ILMENAU",
            "shortname": "ILMENAU"
        }
    },
    {
        "agency": "WSA LAUENBURG",
        "km": 5.531,
        "latitude": 53.29028356771887,
        "longitude": 10.401332363749088,
        "longname": "BARDOWICK OP",
        "number": "5940029",
        "shortname": "BARDOWICK OP",
        "uuid": "07830b68-c5b8-42dd-bf48-7176802130d0",
        "water": {
            "longname": "ILMENAU",
            "shortname": "ILMENAU"
        }
    },
    {
        "agency": "WSA LAUENBURG",
        "km": 5.78,
        "latitude": 53.292471122708534,
        "longitude": 10.400999061267543,
        "longname": "BARDOWICK UP",
        "number": "5940030",
        "shortname": "BARDOWICK UP",
        "uuid": "a238b70f-1198-4b2f-8c03-41f3503e5389",
        "water": {
            "longname": "ILMENAU",
            "shortname": "ILMENAU"
        }
    },
    {
        "agency": "WSA LAUENBURG",
        "km": 12.437,
        "latitude": 53.341192043701525,
        "longitude": 10.383452653753132,
        "longname": "WITTORF OP",
        "number": "5940049",
        "shortname": "WITTORF OP",
        "uuid": "eb3d4195-8c73-46b6-87e9-ef0de83edddf",
        "water": {
            "longname": "ILMENAU",
            "shortname": "ILMENAU"
        }
    },
    {
        "agency": "WSA LAUENBURG",
        "km": 12.44,
        "latitude": 53.342657963988884,
        "longitude": 10.383349979808017,
        "longname": "WITTORF UP",
        "number": "5940050",
        "shortname": "WITTORF UP",
        "uuid": "308c39b6-475f-42c3-857f-7cf257426fa1",
        "water": {
            "longname": "ILMENAU",
            "shortname": "ILMENAU"
        }
    },
    {
        "agency": "WSA LAUENBURG",
        "km": 17.67,
        "latitude": 53.360282772129885,
        "longitude": 10.316369840651536,
        "longname": "FAHRENHOLZ OP",
        "number": "5940070",
        "shortname": "FAHRENHOLZ OP",
        "uuid": "c33c3667-b8c5-484a-8ea0-b92933b5a9f0",
        "water": {
            "longname": "ILMENAU",
            "shortname": "ILMENAU"
        }
    },
    {
        "agency": "WSA LAUENBURG",
        "km": 17.7,
        "latitude": 53.36031051186378,
        "longitude": 10.315484436390111,
        "longname": "FAHRENHOLZ UP",
        "number": "5940060",
        "shortname": "FAHRENHOLZ UP",
        "uuid": "bb62b28f-9947-42b1-92e4-743a1e0c4a76",
        "water": {
            "longname": "ILMENAU",
            "shortname": "ILMENAU"
        }
    },
    {
        "agency": "WSA LAUENBURG",
        "km": 28.5,
        "latitude": 53.39387281905528,
        "longitude": 10.178531367963828,
        "longname": "ILMENAU SPERRWERK AP",
        "number": "5940080",
        "shortname": "ILMENAU SPERRWERK AP",
        "uuid": "6b05e8dc-3089-497a-a602-f40c4283d8bb",
        "water": {
            "longname": "ILMENAU",
            "shortname": "ILMENAU"
        }
    },
    {
        "agency": "WSA HANNOVERSCH M\u00dcNDEN",
        "km": 3.4,
        "latitude": 51.363558419498645,
        "longitude": 8.68278565714364,
        "longname": "KOTTHAUSEN",
        "number": "44100013",
        "shortname": "KOTTHAUSEN",
        "uuid": "36243256-7786-4e69-922f-50785d8904bf",
        "water": {
            "longname": "ITTER ZUR DIEMEL",
            "shortname": "ITTER_DIEMEL"
        }
    },
    {
        "agency": "WSA HANNOVERSCH M\u00dcNDEN",
        "km": 1.3,
        "latitude": 51.19303245892172,
        "longitude": 8.88881490002891,
        "longname": "HERZHAUSEN",
        "number": "42800218",
        "shortname": "HERZHAUSEN",
        "uuid": "855205e7-1cc9-4c5f-a2c2-7d5d84011708",
        "water": {
            "longname": "ITTER ZUR EDER",
            "shortname": "ITTER EDER"
        }
    },
    {
        "agency": "WSA WILHELMSHAVEN",
        "km": 1.565,
        "latitude": 53.51449558364968,
        "longitude": 8.145133955090275,
        "longname": "WHV ALTER VORHAFEN",
        "number": "9440020",
        "shortname": "WHV ALTER VORHAFEN",
        "uuid": "f85bd17b-06c7-49bd-8bfc-ee2bf3ffea99",
        "water": {
            "longname": "JADE",
            "shortname": "JADE"
        }
    },
    {
        "agency": "WSA WILHELMSHAVEN",
        "km": 4.053,
        "latitude": 53.530306059467996,
        "longitude": 8.16072874214752,
        "longname": "WHV NEUER VORHAFEN",
        "number": "9440030",
        "shortname": "WHV NEUER VORHAFEN",
        "uuid": "f77317d9-654f-4f51-925e-004c592049da",
        "water": {
            "longname": "JADE",
            "shortname": "JADE"
        }
    },
    {
        "agency": "WSA WILHELMSHAVEN",
        "km": 18.098,
        "latitude": 53.66916508339961,
        "longitude": 8.148590233830715,
        "longname": "HOOKSIELPLATE",
        "number": "9430020",
        "shortname": "HOOKSIELPLATE",
        "uuid": "fac30fe9-a39c-445a-84de-637a199f1dfa",
        "water": {
            "longname": "JADE",
            "shortname": "JADE"
        }
    },
    {
        "agency": "WSA WILHELMSHAVEN",
        "km": 24.137,
        "latitude": 53.6990043194127,
        "longitude": 8.047073182615408,
        "longname": "SCHILLIG",
        "number": "9430030",
        "shortname": "SCHILLIG",
        "uuid": "b1cda5a0-115f-4976-a0a6-9d427ff6dceb",
        "water": {
            "longname": "JADE",
            "shortname": "JADE"
        }
    },
    {
        "agency": "WSA WILHELMSHAVEN",
        "km": 31.13,
        "latitude": 53.771713596769814,
        "longitude": 8.092507447705561,
        "longname": "MELLUMPLATE",
        "number": "9420010",
        "shortname": "MELLUMPLATE",
        "uuid": "c8b9a2b6-b783-417f-8479-3a0d732fb901",
        "water": {
            "longname": "JADE",
            "shortname": "JADE"
        }
    },
    {
        "agency": "WSA WILHELMSHAVEN",
        "km": 34.999,
        "latitude": 53.767077715389604,
        "longitude": 7.984916047278568,
        "longname": "WANGEROOGE OST",
        "number": "9420020",
        "shortname": "WANGEROOGE OST",
        "uuid": "26656fda-cacf-4e92-9935-3ae6e717fe5b",
        "water": {
            "longname": "JADE",
            "shortname": "JADE"
        }
    },
    {
        "agency": "WSA WILHELMSHAVEN",
        "km": 41.049,
        "latitude": 53.80629852774029,
        "longitude": 7.929200210236435,
        "longname": "WANGEROOGE NORD",
        "number": "9420030",
        "shortname": "WANGEROOGE NORD",
        "uuid": "c41d42b1-5b0d-47c9-ba53-d58d3d109b64",
        "water": {
            "longname": "JADE",
            "shortname": "JADE"
        }
    },
    {
        "agency": "WSA WILHELMSHAVEN",
        "km": 43.208,
        "latitude": 53.776237907291524,
        "longitude": 7.867938460727221,
        "longname": "WANGEROOGE WEST ",
        "number": "9420040",
        "shortname": "WANGEROOGE WEST ",
        "uuid": "70039212-c8a8-43fc-82a5-150d95831772",
        "water": {
            "longname": "JADE",
            "shortname": "JADE"
        }
    },
    {
        "agency": "WSA OSTSEE",
        "km": 0.0,
        "latitude": 53.8436648377186,
        "longitude": 13.858494243912022,
        "longname": "KARNIN",
        "number": "9690084",
        "shortname": "KARNIN",
        "uuid": "da893bbd-965a-49b7-a661-707a1ba899d1",
        "water": {
            "longname": "KLEINES HAFF",
            "shortname": "KLEINES HAFF"
        }
    },
    {
        "agency": "WSA OSTSEE",
        "km": 0.0,
        "latitude": 53.75031035203513,
        "longitude": 14.066477558939376,
        "longname": "UECKERM\u00dcNDE",
        "number": "9690088",
        "shortname": "UECKERM\u00dcNDE",
        "uuid": "c1588dcc-e314-4097-a54c-c0ffbe79209f",
        "water": {
            "longname": "KLEINES HAFF",
            "shortname": "KLEINES HAFF"
        }
    },
    {
        "agency": "WSA HAMBURG",
        "km": 0.028,
        "latitude": 53.75218229281383,
        "longitude": 9.653894435890026,
        "longname": "ELMSHORN HAFEN",
        "number": "5970022",
        "shortname": "ELMSHORN HAFEN",
        "uuid": "136febf6-1371-4118-a9b8-4275444bda5d",
        "water": {
            "longname": "KR\u00dcCKAU",
            "shortname": "KR\u00dcCKAU"
        }
    },
    {
        "agency": "WSA HAMBURG",
        "km": 10.5,
        "latitude": 53.71625803363539,
        "longitude": 9.526956004763068,
        "longname": "KR\u00dcCKAU-SPERRWERK BP",
        "number": "5970023",
        "shortname": "KR\u00dcCKAU-SPERRWERK BP",
        "uuid": "53c277c3-7ddb-4281-9937-97dcfe3753fa",
        "water": {
            "longname": "KR\u00dcCKAU",
            "shortname": "KR\u00dcCKAU"
        }
    },
    {
        "agency": "WSA BREMEN",
        "km": 5.188,
        "latitude": 53.108846927349994,
        "longitude": 8.173069994153126,
        "longname": "HUNDSM\u00dcHLEN",
        "number": "4960020",
        "shortname": "HUNDSM\u00dcHLEN",
        "uuid": "cf6ac249-f20a-400b-8543-31f2d2fe23f0",
        "water": {
            "longname": "K\u00dcSTENKANAL",
            "shortname": "K\u00dcSTENKANAL"
        }
    },
    {
        "agency": "REGIERUNGSPR\u00c4SIDIUM GIESSEN ABTEILUNG STAATLICHES UMWELTAMT MARBURG",
        "km": -38.7,
        "latitude": 50.798715477809225,
        "longitude": 8.764488839485487,
        "longname": "MARBURG",
        "number": "25830056",
        "shortname": "Marburg",
        "uuid": "4e7a6cfa-7548-4f7f-a97a-eb0694881003",
        "water": {
            "longname": "LAHN",
            "shortname": "LAHN"
        }
    },
    {
        "agency": "WSA MOSEL-SAAR-LAHN",
        "km": -3.21,
        "latitude": 50.575037651225514,
        "longitude": 8.64860169166119,
        "longname": "GIESSEN KL\u00c4RWERK",
        "number": "25800100",
        "shortname": "GIESSEN KL\u00c4RWERK",
        "uuid": "4b386a6a-996e-4a4a-a440-15d6b40226d4",
        "water": {
            "longname": "LAHN",
            "shortname": "LAHN"
        }
    },
    {
        "agency": "WSA MOSEL-SAAR-LAHN",
        "km": 25.1,
        "latitude": 50.545120232764674,
        "longitude": 8.355230130810975,
        "longname": "LEUN NEU",
        "number": "25800200",
        "shortname": "LEUN NEU",
        "uuid": "32807065-b887-49f0-935a-80033e5f3cb0",
        "water": {
            "longname": "LAHN",
            "shortname": "LAHN"
        }
    },
    {
        "agency": "WSA MOSEL-SAAR-LAHN",
        "km": 76.611,
        "latitude": 50.39151276997554,
        "longitude": 8.065188851061134,
        "longname": "LIMBURG SCHLEUSE UP",
        "number": "25800440",
        "shortname": "LIMBURG SCHLEUSE UP",
        "uuid": "89038b42-8181-48df-a0cd-2ca3913f2d68",
        "water": {
            "longname": "LAHN",
            "shortname": "LAHN"
        }
    },
    {
        "agency": "WSA MOSEL-SAAR-LAHN",
        "km": 83.7,
        "latitude": 50.3723880903084,
        "longitude": 8.005066992072132,
        "longname": "DIEZ HAFEN",
        "number": "25800500",
        "shortname": "DIEZ HAFEN",
        "uuid": "eadedeb6-c31e-483f-b6c4-ca0153359ad7",
        "water": {
            "longname": "LAHN",
            "shortname": "LAHN"
        }
    },